[
  {
    "activeCity": true,
    "appHotLevel": 1,
    "cityAbbrCode": "KHH",
    "cityAreaCode": "00886-07",
    "cityEnName": "kaohsiung",
    "cityId": 2337,
    "cityLevel": 100,
    "cityName": "高雄",
    "cityOrderId": 1544,
    "cityPyName": "gaoxiong",
    "directURL": "",
    "gLat": 22.634768,
    "gLng": 120.305786,
    "overseasCity": true,
    "parentCityId": 340,
    "provinceId": 34,
    "scenery": false,
    "standardEnName": "Kaohsiung",
    "tuanGouFlag": 1
  },
  {
    "activeCity": true,
    "appHotLevel": 1,
    "cityAbbrCode": "HEN",
    "cityEnName": "Hengchun",
    "cityId": 15243,
    "cityLevel": 100,
    "cityName": "恒春",
    "cityOrderId": 1942,
    "cityPyName": "hengchun",
    "gLat": 21.958841646405368,
    "gLng": 120.78130955750558,
    "overseasCity": true,
    "parentCityId": 340,
    "provinceId": 34,
    "scenery": false,
    "standardEnName": "Hengchun",
    "tuanGouFlag": 1
  },
  {
    "activeCity": true,
    "appHotLevel": 1,
    "cityAbbrCode": "HUN",
    "cityAreaCode": "00886-03",
    "cityEnName": "hualien",
    "cityId": 2336,
    "cityLevel": 100,
    "cityName": "花莲",
    "cityOrderId": 2014,
    "cityPyName": "hualian",
    "directURL": "",
    "gLat": 23.98356,
    "gLng": 121.610498,
    "overseasCity": true,
    "parentCityId": 340,
    "provinceId": 34,
    "scenery": false,
    "standardEnName": "Hualien",
    "tuanGouFlag": 1
  },
  {
    "activeCity": false,
    "appHotLevel": 0,
    "cityAbbrCode": "KEL",
    "cityAreaCode": "2",
    "cityEnName": "keelung",
    "cityId": 3170,
    "cityLevel": 100,
    "cityName": "基隆",
    "cityOrderId": 2212,
    "cityPyName": "jilong",
    "directURL": "",
    "gLat": 25.127306,
    "gLng": 121.738684,
    "overseasCity": true,
    "parentCityId": 340,
    "provinceId": 34,
    "scenery": false,
    "standardEnName": "Keelung",
    "tuanGouFlag": 1
  },
  {
    "activeCity": false,
    "appHotLevel": 0,
    "cityAbbrCode": "CHY",
    "cityAreaCode": "5",
    "cityEnName": "chiayi",
    "cityId": 3172,
    "cityLevel": 100,
    "cityName": "嘉义",
    "cityOrderId": 2306,
    "cityPyName": "jiayi",
    "directURL": "",
    "gLat": 23.477647,
    "gLng": 120.434548,
    "overseasCity": true,
    "parentCityId": 340,
    "provinceId": 34,
    "scenery": false,
    "standardEnName": "Chiayi",
    "tuanGouFlag": 1
  },
  {
    "activeCity": true,
    "appHotLevel": 1,
    "cityAbbrCode": "KD",
    "cityAreaCode": "8868",
    "cityEnName": "kenting",
    "cityId": 2406,
    "cityLevel": 100,
    "cityName": "垦丁",
    "cityOrderId": 2752,
    "cityPyName": "kending",
    "directURL": "",
    "gLat": 22.000992,
    "gLng": 120.747643,
    "overseasCity": true,
    "parentCityId": 15243,
    "provinceId": 34,
    "scenery": false,
    "standardEnName": "Kenting",
    "tuanGouFlag": 1
  },
  {
    "activeCity": false,
    "appHotLevel": 0,
    "cityAbbrCode": "MLI",
    "cityAreaCode": "37",
    "cityEnName": "miaoli",
    "cityId": 3177,
    "cityLevel": 100,
    "cityName": "苗栗",
    "cityOrderId": 3618,
    "cityPyName": "miaoli",
    "directURL": "",
    "gLat": 24.564151,
    "gLng": 120.825774,
    "overseasCity": true,
    "parentCityId": 340,
    "provinceId": 34,
    "scenery": false,
    "standardEnName": "Miaoli",
    "tuanGouFlag": 1
  },
  {
    "activeCity": true,
    "appHotLevel": 1,
    "cityAbbrCode": "NT",
    "cityAreaCode": "00886",
    "cityEnName": "riyuetan",
    "cityId": 2504,
    "cityLevel": 100,
    "cityName": "南投",
    "cityOrderId": 3808,
    "cityPyName": "nantou",
    "directURL": "",
    "gLat": 23.8633,
    "gLng": 120.9193,
    "overseasCity": true,
    "parentCityId": 340,
    "provinceId": 34,
    "scenery": false,
    "standardEnName": "Nantou",
    "tuanGouFlag": 1
  },
  {
    "activeCity": true,
    "appHotLevel": 1,
    "cityAbbrCode": "PEN",
    "cityEnName": "Penghu",
    "cityId": 15242,
    "cityLevel": 100,
    "cityName": "澎湖",
    "cityOrderId": 3978,
    "cityPyName": "penghu",
    "gLat": 23.498930891355265,
    "gLng": 119.50619057914498,
    "overseasCity": true,
    "parentCityId": 340,
    "provinceId": 34,
    "scenery": false,
    "standardEnName": "Penghu",
    "tuanGouFlag": 1
  },
  {
    "activeCity": true,
    "appHotLevel": 1,
    "cityAbbrCode": "TPE",
    "cityAreaCode": "00886-02",
    "cityEnName": "taipei",
    "cityId": 2335,
    "cityLevel": 100,
    "cityName": "台北",
    "cityOrderId": 4974,
    "cityPyName": "taibei",
    "directURL": "",
    "gLat": 25.071295,
    "gLng": 121.538315,
    "overseasCity": true,
    "parentCityId": 340,
    "provinceId": 34,
    "scenery": false,
    "standardEnName": "Taipei",
    "tuanGouFlag": 1
  },
  {
    "activeCity": false,
    "appHotLevel": 0,
    "cityAbbrCode": "TAT",
    "cityAreaCode": "89",
    "cityEnName": "taitung",
    "cityId": 3171,
    "cityLevel": 100,
    "cityName": "台东",
    "cityOrderId": 4976,
    "cityPyName": "taidong",
    "directURL": "",
    "gLat": 22.804659,
    "gLng": 121.095986,
    "overseasCity": true,
    "parentCityId": 340,
    "provinceId": 34,
    "scenery": false,
    "standardEnName": "Taitung",
    "tuanGouFlag": 1
  },
  {
    "activeCity": true,
    "appHotLevel": 1,
    "cityAbbrCode": "TNN",
    "cityAreaCode": "00886-06",
    "cityEnName": "tainan",
    "cityId": 2338,
    "cityLevel": 100,
    "cityName": "台南",
    "cityOrderId": 4980,
    "cityPyName": "tainan",
    "directURL": "",
    "gLat": 23.159301,
    "gLng": 120.300293,
    "overseasCity": true,
    "parentCityId": 340,
    "provinceId": 34,
    "scenery": false,
    "standardEnName": "Tainan",
    "tuanGouFlag": 1
  },
  {
    "activeCity": true,
    "appHotLevel": 1,
    "cityAbbrCode": "TW",
    "cityAreaCode": "00886",
    "cityEnName": "taiwan",
    "cityId": 340,
    "cityLevel": 100,
    "cityName": "台湾",
    "cityOrderId": 4986,
    "cityPyName": "taiwan",
    "directURL": "",
    "gLat": 23.69781,
    "gLng": 120.960515,
    "overseasCity": true,
    "parentCityId": 0,
    "provinceId": 34,
    "scenery": false,
    "standardEnName": "Taiwan",
    "tuanGouFlag": 1
  },
  {
    "activeCity": true,
    "appHotLevel": 1,
    "cityAbbrCode": "TCH",
    "cityAreaCode": "00886-04",
    "cityEnName": "taichung",
    "cityId": 2341,
    "cityLevel": 100,
    "cityName": "台中",
    "cityOrderId": 4988,
    "cityPyName": "taizhong",
    "directURL": "",
    "gLat": 24.15,
    "gLng": 120.666667,
    "overseasCity": true,
    "parentCityId": 340,
    "provinceId": 34,
    "scenery": false,
    "standardEnName": "Taichung",
    "tuanGouFlag": 1
  },
  {
    "activeCity": true,
    "appHotLevel": 1,
    "cityAbbrCode": "TY",
    "cityAreaCode": "00886-03",
    "cityEnName": "taoyuan",
    "cityId": 2339,
    "cityLevel": 100,
    "cityName": "桃园",
    "cityOrderId": 5056,
    "cityPyName": "taoyuan",
    "directURL": "",
    "gLat": 24.989599,
    "gLng": 121.318703,
    "overseasCity": true,
    "parentCityId": 340,
    "provinceId": 34,
    "scenery": false,
    "standardEnName": "Taoyuan",
    "tuanGouFlag": 1
  },
  {
    "activeCity": true,
    "appHotLevel": 1,
    "cityAbbrCode": "NTC",
    "cityAreaCode": "00886-03",
    "cityEnName": "newtaipei",
    "cityId": 2340,
    "cityLevel": 100,
    "cityName": "新北",
    "cityOrderId": 5782,
    "cityPyName": "xinbei",
    "directURL": "",
    "gLat": 24.923493,
    "gLng": 121.672153,
    "overseasCity": true,
    "parentCityId": 340,
    "provinceId": 34,
    "scenery": false,
    "standardEnName": "New Taipei City",
    "tuanGouFlag": 1
  },
  {
    "activeCity": false,
    "appHotLevel": 0,
    "cityAbbrCode": "HSC",
    "cityAreaCode": "3",
    "cityEnName": "hsinchu",
    "cityId": 3174,
    "cityLevel": 100,
    "cityName": "新竹",
    "cityOrderId": 5866,
    "cityPyName": "xinzhu",
    "directURL": "",
    "gLat": 24.843448,
    "gLng": 121.02389,
    "overseasCity": true,
    "parentCityId": 340,
    "provinceId": 34,
    "scenery": false,
    "standardEnName": "Hsinchu",
    "tuanGouFlag": 1
  },
  {
    "activeCity": false,
    "appHotLevel": 0,
    "cityAbbrCode": "ILA",
    "cityAreaCode": "3",
    "cityEnName": "ilan",
    "cityId": 3173,
    "cityLevel": 100,
    "cityName": "宜兰",
    "cityOrderId": 6204,
    "cityPyName": "yilan",
    "directURL": "",
    "gLat": 24.703233,
    "gLng": 121.756677,
    "overseasCity": true,
    "parentCityId": 340,
    "provinceId": 34,
    "scenery": false,
    "standardEnName": "Yilan",
    "tuanGouFlag": 1
  },
  {
    "activeCity": false,
    "appHotLevel": 0,
    "cityAbbrCode": "ZHH",
    "cityAreaCode": "4",
    "cityEnName": "zhanghua",
    "cityId": 3175,
    "cityLevel": 100,
    "cityName": "彰化",
    "cityOrderId": 6552,
    "cityPyName": "zhanghua",
    "directURL": "",
    "gLat": 24.051519,
    "gLng": 120.519456,
    "overseasCity": true,
    "parentCityId": 340,
    "provinceId": 34,
    "scenery": false,
    "standardEnName": "Changhua",
    "tuanGouFlag": 1
  }
]