[
  {
    "activeCity": true,
    "appHotLevel": 1,
    "cityAbbrCode": "AK",
    "cityAreaCode": "0915",
    "cityEnName": "ankang",
    "cityId": 297,
    "cityLevel": 100,
    "cityName": "安康",
    "cityOrderId": 150,
    "cityPyName": "ankang",
    "directURL": "",
    "gLat": 32.684781,
    "gLng": 109.029303,
    "overseasCity": false,
    "parentCityId": 0,
    "provinceId": 27,
    "scenery": false,
    "tuanGouFlag": 1
  },
  {
    "activeCity": true,
    "appHotLevel": 0,
    "cityAbbrCode": "AS",
    "cityAreaCode": "0911",
    "cityEnName": "ansai",
    "cityId": 2011,
    "cityLevel": 100,
    "cityName": "安塞区",
    "cityOrderId": 170,
    "cityPyName": "ansai",
    "directURL": "",
    "gLat": 36.86377,
    "gLng": 109.32904,
    "overseasCity": false,
    "parentCityId": 294,
    "provinceId": 27,
    "scenery": false,
    "tuanGouFlag": 1
  },
  {
    "activeCity": true,
    "appHotLevel": 0,
    "cityAbbrCode": "BH",
    "cityAreaCode": "0915",
    "cityEnName": "baihe",
    "cityId": 2080,
    "cityLevel": 100,
    "cityName": "白河县",
    "cityOrderId": 322,
    "cityPyName": "baihe",
    "directURL": "",
    "gLat": 32.80906,
    "gLng": 110.11261,
    "overseasCity": false,
    "parentCityId": 297,
    "provinceId": 27,
    "scenery": false,
    "tuanGouFlag": 1
  },
  {
    "activeCity": true,
    "appHotLevel": 0,
    "cityAbbrCode": "BS",
    "cityAreaCode": "0913",
    "cityEnName": "baishui",
    "cityId": 2028,
    "cityLevel": 100,
    "cityName": "白水县",
    "cityOrderId": 330,
    "cityPyName": "baishui",
    "directURL": "",
    "gLat": 35.17709,
    "gLng": 109.59081,
    "overseasCity": false,
    "parentCityId": 293,
    "provinceId": 27,
    "scenery": false,
    "tuanGouFlag": 1
  },
  {
    "activeCity": true,
    "appHotLevel": 1,
    "cityAbbrCode": "BJ",
    "cityAreaCode": "0917",
    "cityEnName": "baoji",
    "cityId": 291,
    "cityLevel": 100,
    "cityName": "宝鸡",
    "cityOrderId": 372,
    "cityPyName": "baoji",
    "directURL": "",
    "gLat": 34.372529,
    "gLng": 107.133785,
    "overseasCity": false,
    "parentCityId": 0,
    "provinceId": 27,
    "scenery": false,
    "tuanGouFlag": 1
  },
  {
    "activeCity": true,
    "appHotLevel": 0,
    "cityAbbrCode": "BX",
    "cityAreaCode": "029",
    "cityEnName": "binxianshi",
    "cityId": 2037,
    "cityLevel": 100,
    "cityName": "彬县",
    "cityOrderId": 460,
    "cityPyName": "binxian",
    "directURL": "",
    "gLat": 35.04365,
    "gLng": 108.07752,
    "overseasCity": false,
    "parentCityId": 292,
    "provinceId": 27,
    "scenery": false,
    "tuanGouFlag": 1
  },
  {
    "activeCity": true,
    "appHotLevel": 0,
    "cityAbbrCode": "CW",
    "cityAreaCode": "029",
    "cityEnName": "changwu",
    "cityId": 2038,
    "cityLevel": 100,
    "cityName": "长武县",
    "cityOrderId": 690,
    "cityPyName": "changwu",
    "directURL": "",
    "gLat": 35.20573,
    "gLng": 107.79851,
    "overseasCity": false,
    "parentCityId": 292,
    "provinceId": 27,
    "scenery": false,
    "tuanGouFlag": 1
  },
  {
    "activeCity": true,
    "appHotLevel": 0,
    "cityAbbrCode": "CG",
    "cityAreaCode": "0916",
    "cityEnName": "chenggu",
    "cityId": 2052,
    "cityLevel": 100,
    "cityName": "城固县",
    "cityOrderId": 754,
    "cityPyName": "chenggu",
    "directURL": "",
    "gLat": 33.15675,
    "gLng": 107.33374,
    "overseasCity": false,
    "parentCityId": 295,
    "provinceId": 27,
    "scenery": false,
    "tuanGouFlag": 1
  },
  {
    "activeCity": true,
    "appHotLevel": 0,
    "cityAbbrCode": "CC",
    "cityAreaCode": "0913",
    "cityEnName": "chengcheng",
    "cityId": 2027,
    "cityLevel": 100,
    "cityName": "澄城县",
    "cityOrderId": 758,
    "cityPyName": "chengcheng",
    "directURL": "",
    "gLat": 35.19024,
    "gLng": 109.93226,
    "overseasCity": false,
    "parentCityId": 293,
    "provinceId": 27,
    "scenery": false,
    "tuanGouFlag": 1
  },
  {
    "activeCity": true,
    "appHotLevel": 0,
    "cityAbbrCode": "CH",
    "cityAreaCode": "029",
    "cityEnName": "chunhua",
    "cityId": 2040,
    "cityLevel": 100,
    "cityName": "淳化县",
    "cityOrderId": 814,
    "cityPyName": "chunhua",
    "directURL": "",
    "gLat": 34.79894,
    "gLng": 108.5806,
    "overseasCity": false,
    "parentCityId": 292,
    "provinceId": 27,
    "scenery": false,
    "tuanGouFlag": 1
  },
  {
    "activeCity": true,
    "appHotLevel": 0,
    "cityAbbrCode": "DL",
    "cityAreaCode": "0913",
    "cityEnName": "dalixian",
    "cityId": 2025,
    "cityLevel": 100,
    "cityName": "大荔县",
    "cityOrderId": 886,
    "cityPyName": "dalixian",
    "directURL": "",
    "gLat": 34.79562,
    "gLng": 109.94214,
    "overseasCity": false,
    "parentCityId": 293,
    "provinceId": 27,
    "scenery": false,
    "tuanGouFlag": 1
  },
  {
    "activeCity": true,
    "appHotLevel": 0,
    "cityAbbrCode": "DF",
    "cityAreaCode": "0914",
    "cityEnName": "danfeng",
    "cityId": 2082,
    "cityLevel": 100,
    "cityName": "丹凤县",
    "cityOrderId": 958,
    "cityPyName": "danfeng",
    "directURL": "",
    "gLat": 33.69585,
    "gLng": 110.32721,
    "overseasCity": false,
    "parentCityId": 298,
    "provinceId": 27,
    "scenery": false,
    "tuanGouFlag": 1
  },
  {
    "activeCity": true,
    "appHotLevel": 0,
    "cityAbbrCode": "DB",
    "cityAreaCode": "0912",
    "cityEnName": "dingbian",
    "cityId": 2065,
    "cityLevel": 100,
    "cityName": "定边县",
    "cityOrderId": 1080,
    "cityPyName": "dingbian",
    "directURL": "",
    "gLat": 37.59461,
    "gLng": 107.60125,
    "overseasCity": false,
    "parentCityId": 296,
    "provinceId": 27,
    "scenery": false,
    "tuanGouFlag": 1
  },
  {
    "activeCity": true,
    "appHotLevel": 0,
    "cityAbbrCode": "FX",
    "cityAreaCode": "0917",
    "cityEnName": "fengxianxian",
    "cityId": 2049,
    "cityLevel": 100,
    "cityName": "凤县",
    "cityOrderId": 1344,
    "cityPyName": "fengxian",
    "directURL": "",
    "gLat": 33.91087,
    "gLng": 106.5158,
    "overseasCity": false,
    "parentCityId": 291,
    "provinceId": 27,
    "scenery": false,
    "tuanGouFlag": 1
  },
  {
    "activeCity": true,
    "appHotLevel": 0,
    "cityAbbrCode": "FX",
    "cityAreaCode": "0917",
    "cityEnName": "fengxiang",
    "cityId": 2042,
    "cityLevel": 100,
    "cityName": "凤翔县",
    "cityOrderId": 1346,
    "cityPyName": "fengxiang",
    "directURL": "",
    "gLat": 34.52114,
    "gLng": 107.40076,
    "overseasCity": false,
    "parentCityId": 291,
    "provinceId": 27,
    "scenery": false,
    "tuanGouFlag": 1
  },
  {
    "activeCity": true,
    "appHotLevel": 0,
    "cityAbbrCode": "FP",
    "cityAreaCode": "0916",
    "cityEnName": "fopin",
    "cityId": 2060,
    "cityLevel": 100,
    "cityName": "佛坪县",
    "cityOrderId": 1366,
    "cityPyName": "foping",
    "directURL": "",
    "gLat": 33.52449,
    "gLng": 107.9905,
    "overseasCity": false,
    "parentCityId": 295,
    "provinceId": 27,
    "scenery": false,
    "tuanGouFlag": 1
  },
  {
    "activeCity": true,
    "appHotLevel": 0,
    "cityAbbrCode": "FF",
    "cityAreaCode": "0917",
    "cityEnName": "fufeng",
    "cityId": 2044,
    "cityLevel": 100,
    "cityName": "扶风县",
    "cityOrderId": 1378,
    "cityPyName": "fufeng",
    "directURL": "",
    "gLat": 34.37527,
    "gLng": 107.90022,
    "overseasCity": false,
    "parentCityId": 291,
    "provinceId": 27,
    "scenery": false,
    "tuanGouFlag": 1
  },
  {
    "activeCity": true,
    "appHotLevel": 0,
    "cityAbbrCode": "FG",
    "cityAreaCode": "0912",
    "cityEnName": "fugu",
    "cityId": 2062,
    "cityLevel": 100,
    "cityName": "府谷县",
    "cityOrderId": 1424,
    "cityPyName": "fugu",
    "directURL": "",
    "gLat": 39.02851,
    "gLng": 111.06724,
    "overseasCity": false,
    "parentCityId": 296,
    "provinceId": 27,
    "scenery": false,
    "tuanGouFlag": 1
  },
  {
    "activeCity": true,
    "appHotLevel": 0,
    "cityAbbrCode": "FP",
    "cityAreaCode": "0913",
    "cityEnName": "fupingxian",
    "cityId": 2030,
    "cityLevel": 100,
    "cityName": "富平县",
    "cityOrderId": 1460,
    "cityPyName": "fupingxian",
    "directURL": "",
    "gLat": 34.75114,
    "gLng": 109.18025,
    "overseasCity": false,
    "parentCityId": 293,
    "provinceId": 27,
    "scenery": false,
    "tuanGouFlag": 1
  },
  {
    "activeCity": true,
    "appHotLevel": 0,
    "cityAbbrCode": "FX",
    "cityAreaCode": "0911",
    "cityEnName": "fuxian",
    "cityId": 2015,
    "cityLevel": 100,
    "cityName": "富县",
    "cityOrderId": 1466,
    "cityPyName": "fuxian",
    "directURL": "",
    "gLat": 35.98779,
    "gLng": 109.37976,
    "overseasCity": false,
    "parentCityId": 294,
    "provinceId": 27,
    "scenery": false,
    "tuanGouFlag": 1
  },
  {
    "activeCity": true,
    "appHotLevel": 0,
    "cityAbbrCode": "GQ",
    "cityAreaCode": "0911",
    "cityEnName": "ganquan",
    "cityId": 2014,
    "cityLevel": 100,
    "cityName": "甘泉县",
    "cityOrderId": 1492,
    "cityPyName": "ganquan",
    "directURL": "",
    "gLat": 36.27681,
    "gLng": 109.3512,
    "overseasCity": false,
    "parentCityId": 294,
    "provinceId": 27,
    "scenery": false,
    "tuanGouFlag": 1
  },
  {
    "activeCity": true,
    "appHotLevel": 0,
    "cityAbbrCode": "GL",
    "cityAreaCode": "029",
    "cityEnName": "gaoling",
    "cityId": 2007,
    "cityLevel": 100,
    "cityName": "高陵区",
    "cityOrderId": 1526,
    "cityPyName": "gaoling",
    "directURL": "",
    "gLat": 34.53487,
    "gLng": 109.08822,
    "overseasCity": false,
    "parentCityId": 17,
    "provinceId": 27,
    "scenery": false,
    "tuanGouFlag": 1
  },
  {
    "activeCity": true,
    "appHotLevel": 0,
    "cityAbbrCode": "HC",
    "cityAreaCode": "0913",
    "cityEnName": "hancheng",
    "cityId": 2022,
    "cityLevel": 100,
    "cityName": "韩城市",
    "cityOrderId": 1816,
    "cityPyName": "hancheng",
    "directURL": "",
    "gLat": 35.47671,
    "gLng": 110.44285,
    "overseasCity": false,
    "parentCityId": 293,
    "provinceId": 27,
    "scenery": false,
    "tuanGouFlag": 1
  },
  {
    "activeCity": true,
    "appHotLevel": 0,
    "cityAbbrCode": "HY",
    "cityAreaCode": "0915",
    "cityEnName": "hanyin",
    "cityId": 2072,
    "cityLevel": 100,
    "cityName": "汉阴县",
    "cityOrderId": 1832,
    "cityPyName": "hanyin",
    "directURL": "",
    "gLat": 32.89314,
    "gLng": 108.50866,
    "overseasCity": false,
    "parentCityId": 297,
    "provinceId": 27,
    "scenery": false,
    "tuanGouFlag": 1
  },
  {
    "activeCity": true,
    "appHotLevel": 1,
    "cityAbbrCode": "HZ",
    "cityAreaCode": "0916",
    "cityEnName": "hanzhong",
    "cityId": 295,
    "cityLevel": 100,
    "cityName": "汉中",
    "cityOrderId": 1836,
    "cityPyName": "hanzhong",
    "directURL": "",
    "gLat": 33.067915,
    "gLng": 107.023329,
    "overseasCity": false,
    "parentCityId": 0,
    "provinceId": 27,
    "scenery": false,
    "tuanGouFlag": 1
  },
  {
    "activeCity": true,
    "appHotLevel": 0,
    "cityAbbrCode": "HY",
    "cityAreaCode": "0913",
    "cityEnName": "heyang",
    "cityId": 2029,
    "cityLevel": 100,
    "cityName": "合阳县",
    "cityOrderId": 1858,
    "cityPyName": "heyang",
    "directURL": "",
    "gLat": 35.23752,
    "gLng": 110.14928,
    "overseasCity": false,
    "parentCityId": 293,
    "provinceId": 27,
    "scenery": false,
    "tuanGouFlag": 1
  },
  {
    "activeCity": true,
    "appHotLevel": 0,
    "cityAbbrCode": "HS",
    "cityAreaCode": "0912",
    "cityEnName": "hengshanqu",
    "cityId": 2063,
    "cityLevel": 100,
    "cityName": "横山区",
    "cityOrderId": 1950,
    "cityPyName": "hengshanqu",
    "directURL": "",
    "gLat": 37.96238,
    "gLng": 109.2937,
    "overseasCity": false,
    "parentCityId": 296,
    "provinceId": 27,
    "scenery": false,
    "tuanGouFlag": 1
  },
  {
    "activeCity": true,
    "appHotLevel": 0,
    "cityAbbrCode": "HX",
    "cityAreaCode": "029",
    "cityEnName": "huxian",
    "cityId": 2006,
    "cityLevel": 100,
    "cityName": "鄠邑区",
    "cityOrderId": 2012,
    "cityPyName": "huxian",
    "directURL": "",
    "gLat": 34.10859,
    "gLng": 108.60515,
    "overseasCity": false,
    "parentCityId": 17,
    "provinceId": 27,
    "scenery": false,
    "tuanGouFlag": 1
  },
  {
    "activeCity": true,
    "appHotLevel": 0,
    "cityAbbrCode": "HS",
    "cityAreaCode": "0913",
    "cityEnName": "huashan",
    "cityId": 3629,
    "cityLevel": 100,
    "cityName": "华山",
    "cityOrderId": 2032,
    "cityPyName": "huashan",
    "directURL": "",
    "gLat": 36.73902,
    "gLng": 117.09634,
    "overseasCity": false,
    "parentCityId": 2021,
    "provinceId": 27,
    "scenery": true,
    "tuanGouFlag": 1
  },
  {
    "activeCity": true,
    "appHotLevel": 1,
    "cityAbbrCode": "HY",
    "cityAreaCode": "0913",
    "cityEnName": "huayin",
    "cityId": 2021,
    "cityLevel": 100,
    "cityName": "华阴市",
    "cityOrderId": 2042,
    "cityPyName": "huayin",
    "directURL": "",
    "gLat": 34.5661,
    "gLng": 110.09208,
    "overseasCity": false,
    "parentCityId": 293,
    "provinceId": 27,
    "scenery": false,
    "tuanGouFlag": 1
  },
  {
    "activeCity": true,
    "appHotLevel": 0,
    "cityAbbrCode": "HZ",
    "cityAreaCode": "0913",
    "cityEnName": "huazhouqu",
    "cityId": 2023,
    "cityLevel": 100,
    "cityName": "华州区",
    "cityOrderId": 2046,
    "cityPyName": "huazhou",
    "directURL": "",
    "gLat": 34.49608,
    "gLng": 109.7763,
    "overseasCity": false,
    "parentCityId": 293,
    "provinceId": 27,
    "scenery": false,
    "tuanGouFlag": 1
  },
  {
    "activeCity": true,
    "appHotLevel": 0,
    "cityAbbrCode": "HL",
    "cityAreaCode": "0911",
    "cityEnName": "huangling",
    "cityId": 2019,
    "cityLevel": 100,
    "cityName": "黄陵县",
    "cityOrderId": 2110,
    "cityPyName": "huangling",
    "directURL": "",
    "gLat": 35.57937,
    "gLng": 109.26291,
    "overseasCity": false,
    "parentCityId": 294,
    "provinceId": 27,
    "scenery": false,
    "tuanGouFlag": 1
  },
  {
    "activeCity": true,
    "appHotLevel": 0,
    "cityAbbrCode": "HL",
    "cityAreaCode": "0911",
    "cityEnName": "huangliu",
    "cityId": 2018,
    "cityLevel": 100,
    "cityName": "黄龙县",
    "cityOrderId": 2112,
    "cityPyName": "huanglong",
    "directURL": "",
    "gLat": 35.58436,
    "gLng": 109.84015,
    "overseasCity": false,
    "parentCityId": 294,
    "provinceId": 27,
    "scenery": false,
    "tuanGouFlag": 1
  },
  {
    "activeCity": true,
    "appHotLevel": 0,
    "cityAbbrCode": "JX",
    "cityAreaCode": "0912",
    "cityEnName": "jiaxianxian",
    "cityId": 2068,
    "cityLevel": 100,
    "cityName": "佳县",
    "cityOrderId": 2294,
    "cityPyName": "jiaxian",
    "directURL": "",
    "gLat": 38.01959,
    "gLng": 110.49136,
    "overseasCity": false,
    "parentCityId": 296,
    "provinceId": 27,
    "scenery": false,
    "tuanGouFlag": 1
  },
  {
    "activeCity": true,
    "appHotLevel": 0,
    "cityAbbrCode": "JY",
    "cityAreaCode": "029",
    "cityEnName": "jingyang",
    "cityId": 2033,
    "cityLevel": 100,
    "cityName": "泾阳县",
    "cityOrderId": 2502,
    "cityPyName": "jingyang",
    "directURL": "",
    "gLat": 34.52705,
    "gLng": 108.84263,
    "overseasCity": false,
    "parentCityId": 292,
    "provinceId": 27,
    "scenery": false,
    "tuanGouFlag": 1
  },
  {
    "activeCity": true,
    "appHotLevel": 0,
    "cityAbbrCode": "JB",
    "cityAreaCode": "0912",
    "cityEnName": "jingbian",
    "cityId": 2064,
    "cityLevel": 100,
    "cityName": "靖边县",
    "cityOrderId": 2536,
    "cityPyName": "jingbian",
    "directURL": "",
    "gLat": 37.59949,
    "gLng": 108.79422,
    "overseasCity": false,
    "parentCityId": 296,
    "provinceId": 27,
    "scenery": false,
    "tuanGouFlag": 1
  },
  {
    "activeCity": true,
    "appHotLevel": 0,
    "cityAbbrCode": "LG",
    "cityAreaCode": "0915",
    "cityEnName": "langao",
    "cityId": 2076,
    "cityLevel": 100,
    "cityName": "岚皋县",
    "cityOrderId": 2846,
    "cityPyName": "langao",
    "directURL": "",
    "gLat": 32.30715,
    "gLng": 108.90221,
    "overseasCity": false,
    "parentCityId": 297,
    "provinceId": 27,
    "scenery": false,
    "tuanGouFlag": 1
  },
  {
    "activeCity": true,
    "appHotLevel": 0,
    "cityAbbrCode": "LT",
    "cityAreaCode": "029",
    "cityEnName": "lantian",
    "cityId": 2004,
    "cityLevel": 100,
    "cityName": "蓝田县",
    "cityOrderId": 2858,
    "cityPyName": "lantian",
    "directURL": "",
    "gLat": 34.15132,
    "gLng": 109.32345,
    "overseasCity": false,
    "parentCityId": 17,
    "provinceId": 27,
    "scenery": false,
    "tuanGouFlag": 1
  },
  {
    "activeCity": true,
    "appHotLevel": 0,
    "cityAbbrCode": "LQ",
    "cityAreaCode": "029",
    "cityEnName": "liquan",
    "cityId": 2035,
    "cityLevel": 100,
    "cityName": "礼泉县",
    "cityOrderId": 2936,
    "cityPyName": "liquan",
    "directURL": "",
    "gLat": 34.48174,
    "gLng": 108.42496,
    "overseasCity": false,
    "parentCityId": 292,
    "provinceId": 27,
    "scenery": false,
    "tuanGouFlag": 1
  },
  {
    "activeCity": true,
    "appHotLevel": 1,
    "cityAbbrCode": "LT",
    "cityAreaCode": "029",
    "cityEnName": "lintong",
    "cityId": 4484,
    "cityLevel": 100,
    "cityName": "临潼区",
    "cityOrderId": 3094,
    "cityPyName": "lintong",
    "gLat": 0.0,
    "gLng": 0.0,
    "overseasCity": false,
    "parentCityId": 17,
    "provinceId": 27,
    "scenery": false,
    "standardEnName": "lintong",
    "tuanGouFlag": 1
  },
  {
    "activeCity": true,
    "appHotLevel": 0,
    "cityAbbrCode": "LY",
    "cityAreaCode": "0917",
    "cityEnName": "linyou",
    "cityId": 2048,
    "cityLevel": 100,
    "cityName": "麟游县",
    "cityOrderId": 3124,
    "cityPyName": "linyou",
    "directURL": "",
    "gLat": 34.67793,
    "gLng": 107.79339,
    "overseasCity": false,
    "parentCityId": 291,
    "provinceId": 27,
    "scenery": false,
    "tuanGouFlag": 1
  },
  {
    "activeCity": true,
    "appHotLevel": 0,
    "cityAbbrCode": "LB",
    "cityAreaCode": "0916",
    "cityEnName": "liuba",
    "cityId": 2059,
    "cityLevel": 100,
    "cityName": "留坝县",
    "cityOrderId": 3158,
    "cityPyName": "liuba",
    "directURL": "",
    "gLat": 33.61758,
    "gLng": 106.92076,
    "overseasCity": false,
    "parentCityId": 295,
    "provinceId": 27,
    "scenery": false,
    "tuanGouFlag": 1
  },
  {
    "activeCity": true,
    "appHotLevel": 0,
    "cityAbbrCode": "LX",
    "cityAreaCode": "0917",
    "cityEnName": "longxian",
    "cityId": 2046,
    "cityLevel": 100,
    "cityName": "陇县",
    "cityOrderId": 3236,
    "cityPyName": "longxian",
    "directURL": "",
    "gLat": 34.89305,
    "gLng": 106.8643,
    "overseasCity": false,
    "parentCityId": 291,
    "provinceId": 27,
    "scenery": false,
    "tuanGouFlag": 1
  },
  {
    "activeCity": true,
    "appHotLevel": 0,
    "cityAbbrCode": "LY",
    "cityAreaCode": "0916",
    "cityEnName": "lueyang",
    "cityId": 2057,
    "cityLevel": 100,
    "cityName": "略阳县",
    "cityOrderId": 3338,
    "cityPyName": "lueyang",
    "directURL": "",
    "gLat": 33.32733,
    "gLng": 106.1566,
    "overseasCity": false,
    "parentCityId": 295,
    "provinceId": 27,
    "scenery": false,
    "tuanGouFlag": 1
  },
  {
    "activeCity": true,
    "appHotLevel": 0,
    "cityAbbrCode": "LC",
    "cityAreaCode": "0911",
    "cityEnName": "luochuan",
    "cityId": 2016,
    "cityLevel": 100,
    "cityName": "洛川县",
    "cityOrderId": 3376,
    "cityPyName": "luochuan",
    "directURL": "",
    "gLat": 35.76217,
    "gLng": 109.4324,
    "overseasCity": false,
    "parentCityId": 294,
    "provinceId": 27,
    "scenery": false,
    "tuanGouFlag": 1
  },
  {
    "activeCity": true,
    "appHotLevel": 0,
    "cityAbbrCode": "LN",
    "cityAreaCode": "0914",
    "cityEnName": "luonan",
    "cityId": 2081,
    "cityLevel": 100,
    "cityName": "洛南县",
    "cityOrderId": 3380,
    "cityPyName": "luonan",
    "directURL": "",
    "gLat": 34.09082,
    "gLng": 110.14842,
    "overseasCity": false,
    "parentCityId": 298,
    "provinceId": 27,
    "scenery": false,
    "tuanGouFlag": 1
  },
  {
    "activeCity": true,
    "appHotLevel": 0,
    "cityAbbrCode": "MX",
    "cityAreaCode": "0917",
    "cityEnName": "bjmeixian",
    "cityId": 2045,
    "cityLevel": 100,
    "cityName": "眉县",
    "cityOrderId": 3510,
    "cityPyName": "meixian",
    "directURL": "",
    "gLat": 34.2741,
    "gLng": 107.74992,
    "overseasCity": false,
    "parentCityId": 291,
    "provinceId": 27,
    "scenery": false,
    "tuanGouFlag": 1
  },
  {
    "activeCity": true,
    "appHotLevel": 0,
    "cityAbbrCode": "MZ",
    "cityAreaCode": "0912",
    "cityEnName": "mizhi",
    "cityId": 2067,
    "cityLevel": 100,
    "cityName": "米脂县",
    "cityOrderId": 3592,
    "cityPyName": "mizhi",
    "directURL": "",
    "gLat": 37.75524,
    "gLng": 110.1838,
    "overseasCity": false,
    "parentCityId": 296,
    "provinceId": 27,
    "scenery": false,
    "tuanGouFlag": 1
  },
  {
    "activeCity": true,
    "appHotLevel": 0,
    "cityAbbrCode": "MX",
    "cityAreaCode": "0916",
    "cityEnName": "mianxian",
    "cityId": 2055,
    "cityLevel": 100,
    "cityName": "勉县",
    "cityOrderId": 3612,
    "cityPyName": "mianxian",
    "directURL": "",
    "gLat": 33.15362,
    "gLng": 106.67314,
    "overseasCity": false,
    "parentCityId": 295,
    "provinceId": 27,
    "scenery": false,
    "tuanGouFlag": 1
  },
  {
    "activeCity": true,
    "appHotLevel": 0,
    "cityAbbrCode": "NZ",
    "cityAreaCode": "0916",
    "cityEnName": "nanzheng",
    "cityId": 2051,
    "cityLevel": 100,
    "cityName": "南郑区",
    "cityOrderId": 3820,
    "cityPyName": "nanzheng",
    "directURL": "",
    "gLat": 32.99891,
    "gLng": 106.93734,
    "overseasCity": false,
    "parentCityId": 295,
    "provinceId": 27,
    "scenery": false,
    "tuanGouFlag": 1
  },
  {
    "activeCity": true,
    "appHotLevel": 0,
    "cityAbbrCode": "NQ",
    "cityAreaCode": "0916",
    "cityEnName": "ningqiang",
    "cityId": 2056,
    "cityLevel": 100,
    "cityName": "宁强县",
    "cityOrderId": 3892,
    "cityPyName": "ningqiang",
    "directURL": "",
    "gLat": 32.82962,
    "gLng": 106.2572,
    "overseasCity": false,
    "parentCityId": 295,
    "provinceId": 27,
    "scenery": false,
    "tuanGouFlag": 1
  },
  {
    "activeCity": true,
    "appHotLevel": 0,
    "cityAbbrCode": "NS",
    "cityAreaCode": "0915",
    "cityEnName": "ningshan",
    "cityId": 2074,
    "cityLevel": 100,
    "cityName": "宁陕县",
    "cityOrderId": 3894,
    "cityPyName": "ningshan",
    "directURL": "",
    "gLat": 33.31049,
    "gLng": 108.31428,
    "overseasCity": false,
    "parentCityId": 297,
    "provinceId": 27,
    "scenery": false,
    "tuanGouFlag": 1
  },
  {
    "activeCity": true,
    "appHotLevel": 0,
    "cityAbbrCode": "PL",
    "cityAreaCode": "0915",
    "cityEnName": "pingli",
    "cityId": 2077,
    "cityLevel": 100,
    "cityName": "平利县",
    "cityOrderId": 4018,
    "cityPyName": "pingli",
    "directURL": "",
    "gLat": 32.38903,
    "gLng": 109.3618,
    "overseasCity": false,
    "parentCityId": 297,
    "provinceId": 27,
    "scenery": false,
    "tuanGouFlag": 1
  },
  {
    "activeCity": true,
    "appHotLevel": 0,
    "cityAbbrCode": "PC",
    "cityAreaCode": "0913",
    "cityEnName": "puchengxian",
    "cityId": 2026,
    "cityLevel": 100,
    "cityName": "蒲城县",
    "cityOrderId": 4076,
    "cityPyName": "puchengxian",
    "directURL": "",
    "gLat": 34.95532,
    "gLng": 109.58641,
    "overseasCity": false,
    "parentCityId": 293,
    "provinceId": 27,
    "scenery": false,
    "tuanGouFlag": 1
  },
  {
    "activeCity": true,
    "appHotLevel": 0,
    "cityAbbrCode": "QS",
    "cityAreaCode": "0917",
    "cityEnName": "qishan",
    "cityId": 2043,
    "cityLevel": 100,
    "cityName": "岐山县",
    "cityOrderId": 4146,
    "cityPyName": "qishan",
    "directURL": "",
    "gLat": 34.44346,
    "gLng": 107.62101,
    "overseasCity": false,
    "parentCityId": 291,
    "provinceId": 27,
    "scenery": false,
    "tuanGouFlag": 1
  },
  {
    "activeCity": true,
    "appHotLevel": 0,
    "cityAbbrCode": "QY",
    "cityAreaCode": "0917",
    "cityEnName": "qianyang",
    "cityId": 2047,
    "cityLevel": 100,
    "cityName": "千阳县",
    "cityOrderId": 4168,
    "cityPyName": "qianyang",
    "directURL": "",
    "gLat": 34.64244,
    "gLng": 107.13231,
    "overseasCity": false,
    "parentCityId": 291,
    "provinceId": 27,
    "scenery": false,
    "tuanGouFlag": 1
  },
  {
    "activeCity": true,
    "appHotLevel": 0,
    "cityAbbrCode": "QX",
    "cityAreaCode": "029",
    "cityEnName": "qianxian",
    "cityId": 2034,
    "cityLevel": 100,
    "cityName": "乾县",
    "cityOrderId": 4182,
    "cityPyName": "qianxian",
    "directURL": "",
    "gLat": 34.52783,
    "gLng": 108.23939,
    "overseasCity": false,
    "parentCityId": 292,
    "provinceId": 27,
    "scenery": false,
    "tuanGouFlag": 1
  },
  {
    "activeCity": true,
    "appHotLevel": 0,
    "cityAbbrCode": "QJ",
    "cityAreaCode": "0912",
    "cityEnName": "qingjian",
    "cityId": 2070,
    "cityLevel": 100,
    "cityName": "清涧县",
    "cityOrderId": 4254,
    "cityPyName": "qingjian",
    "directURL": "",
    "gLat": 37.0889,
    "gLng": 110.12114,
    "overseasCity": false,
    "parentCityId": 296,
    "provinceId": 27,
    "scenery": false,
    "tuanGouFlag": 1
  },
  {
    "activeCity": true,
    "appHotLevel": 0,
    "cityAbbrCode": "SY",
    "cityAreaCode": "029",
    "cityEnName": "sanyuan",
    "cityId": 2032,
    "cityLevel": 100,
    "cityName": "三原县",
    "cityOrderId": 4494,
    "cityPyName": "sanyuan",
    "directURL": "",
    "gLat": 34.61704,
    "gLng": 108.9404,
    "overseasCity": false,
    "parentCityId": 292,
    "provinceId": 27,
    "scenery": false,
    "tuanGouFlag": 1
  },
  {
    "activeCity": true,
    "appHotLevel": 0,
    "cityAbbrCode": "SY",
    "cityAreaCode": "0914",
    "cityEnName": "shanyang",
    "cityId": 2084,
    "cityLevel": 100,
    "cityName": "山阳县",
    "cityOrderId": 4540,
    "cityPyName": "shanyang",
    "directURL": "",
    "gLat": 33.53222,
    "gLng": 109.88207,
    "overseasCity": false,
    "parentCityId": 298,
    "provinceId": 27,
    "scenery": false,
    "tuanGouFlag": 1
  },
  {
    "activeCity": true,
    "appHotLevel": 1,
    "cityAbbrCode": "SL",
    "cityAreaCode": "0914",
    "cityEnName": "shangluo",
    "cityId": 298,
    "cityLevel": 100,
    "cityName": "商洛",
    "cityOrderId": 4558,
    "cityPyName": "shangluo",
    "directURL": "",
    "gLat": 33.870428,
    "gLng": 109.940476,
    "overseasCity": false,
    "parentCityId": 0,
    "provinceId": 27,
    "scenery": false,
    "tuanGouFlag": 1
  },
  {
    "activeCity": true,
    "appHotLevel": 0,
    "cityAbbrCode": "SN",
    "cityAreaCode": "0914",
    "cityEnName": "shangnan",
    "cityId": 2083,
    "cityLevel": 100,
    "cityName": "商南县",
    "cityOrderId": 4560,
    "cityPyName": "shangnan",
    "directURL": "",
    "gLat": 33.53109,
    "gLng": 110.88193,
    "overseasCity": false,
    "parentCityId": 298,
    "provinceId": 27,
    "scenery": false,
    "tuanGouFlag": 1
  },
  {
    "activeCity": true,
    "appHotLevel": 0,
    "cityAbbrCode": "SM",
    "cityAreaCode": "0912",
    "cityEnName": "shenmu",
    "cityId": 2061,
    "cityLevel": 100,
    "cityName": "神木市",
    "cityOrderId": 4634,
    "cityPyName": "shenmu",
    "directURL": "",
    "gLat": 38.84244,
    "gLng": 110.49888,
    "overseasCity": false,
    "parentCityId": 296,
    "provinceId": 27,
    "scenery": false,
    "tuanGouFlag": 1
  },
  {
    "activeCity": true,
    "appHotLevel": 0,
    "cityAbbrCode": "SQ",
    "cityAreaCode": "0915",
    "cityEnName": "shiquan",
    "cityId": 2073,
    "cityLevel": 100,
    "cityName": "石泉县",
    "cityOrderId": 4728,
    "cityPyName": "shiquan",
    "directURL": "",
    "gLat": 33.03829,
    "gLng": 108.24843,
    "overseasCity": false,
    "parentCityId": 297,
    "provinceId": 27,
    "scenery": false,
    "tuanGouFlag": 1
  },
  {
    "activeCity": true,
    "appHotLevel": 0,
    "cityAbbrCode": "SD",
    "cityAreaCode": "0912",
    "cityEnName": "suide",
    "cityId": 2066,
    "cityLevel": 100,
    "cityName": "绥德县",
    "cityOrderId": 4914,
    "cityPyName": "suide",
    "directURL": "",
    "gLat": 37.50278,
    "gLng": 110.26317,
    "overseasCity": false,
    "parentCityId": 296,
    "provinceId": 27,
    "scenery": false,
    "tuanGouFlag": 1
  },
  {
    "activeCity": true,
    "appHotLevel": 0,
    "cityAbbrCode": "TB",
    "cityAreaCode": "0917",
    "cityEnName": "taibai",
    "cityId": 2050,
    "cityLevel": 100,
    "cityName": "太白县",
    "cityOrderId": 4992,
    "cityPyName": "taibai",
    "directURL": "",
    "gLat": 34.05825,
    "gLng": 107.3191,
    "overseasCity": false,
    "parentCityId": 291,
    "provinceId": 27,
    "scenery": false,
    "tuanGouFlag": 1
  },
  {
    "activeCity": true,
    "appHotLevel": 1,
    "cityAbbrCode": "TC",
    "cityAreaCode": "0919",
    "cityEnName": "tongchuan",
    "cityId": 290,
    "cityLevel": 100,
    "cityName": "铜川",
    "cityOrderId": 5176,
    "cityPyName": "tongchuan",
    "directURL": "",
    "gLat": 34.896747,
    "gLng": 108.945142,
    "overseasCity": false,
    "parentCityId": 0,
    "provinceId": 27,
    "scenery": false,
    "tuanGouFlag": 1
  },
  {
    "activeCity": true,
    "appHotLevel": 0,
    "cityAbbrCode": "TG",
    "cityAreaCode": "0913",
    "cityEnName": "tongguan",
    "cityId": 2024,
    "cityLevel": 100,
    "cityName": "潼关县",
    "cityOrderId": 5186,
    "cityPyName": "tongguan",
    "directURL": "",
    "gLat": 34.54439,
    "gLng": 110.24643,
    "overseasCity": false,
    "parentCityId": 293,
    "provinceId": 27,
    "scenery": false,
    "tuanGouFlag": 1
  },
  {
    "activeCity": true,
    "appHotLevel": 1,
    "cityAbbrCode": "WN",
    "cityAreaCode": "0913",
    "cityEnName": "weinan",
    "cityId": 293,
    "cityLevel": 100,
    "cityName": "渭南",
    "cityOrderId": 5336,
    "cityPyName": "weinan",
    "directURL": "",
    "gLat": 34.499995,
    "gLng": 109.509786,
    "overseasCity": false,
    "parentCityId": 0,
    "provinceId": 27,
    "scenery": false,
    "tuanGouFlag": 1
  },
  {
    "activeCity": true,
    "appHotLevel": 0,
    "cityAbbrCode": "WB",
    "cityAreaCode": "0912",
    "cityEnName": "wubao",
    "cityId": 2069,
    "cityLevel": 100,
    "cityName": "吴堡县",
    "cityOrderId": 5462,
    "cityPyName": "wubao",
    "directURL": "",
    "gLat": 37.45224,
    "gLng": 110.73967,
    "overseasCity": false,
    "parentCityId": 296,
    "provinceId": 27,
    "scenery": false,
    "tuanGouFlag": 1
  },
  {
    "activeCity": true,
    "appHotLevel": 0,
    "cityAbbrCode": "WQ",
    "cityAreaCode": "0911",
    "cityEnName": "wuqi",
    "cityId": 2013,
    "cityLevel": 100,
    "cityName": "吴起县",
    "cityOrderId": 5468,
    "cityPyName": "wuqi",
    "directURL": "",
    "gLat": 36.9275,
    "gLng": 108.17649,
    "overseasCity": false,
    "parentCityId": 294,
    "provinceId": 27,
    "scenery": false,
    "tuanGouFlag": 1
  },
  {
    "activeCity": true,
    "appHotLevel": 0,
    "cityAbbrCode": "WG",
    "cityAreaCode": "029",
    "cityEnName": "wugong",
    "cityId": 2041,
    "cityLevel": 100,
    "cityName": "武功县",
    "cityOrderId": 5516,
    "cityPyName": "wugong",
    "directURL": "",
    "gLat": 34.26024,
    "gLng": 108.20019,
    "overseasCity": false,
    "parentCityId": 292,
    "provinceId": 27,
    "scenery": false,
    "tuanGouFlag": 1
  },
  {
    "activeCity": true,
    "appHotLevel": 1,
    "cityAbbrCode": "XA",
    "cityAreaCode": "029",
    "cityEnName": "xian",
    "cityId": 17,
    "cityLevel": 2,
    "cityName": "西安",
    "cityOrderId": 5566,
    "cityPyName": "xian",
    "directURL": "",
    "gLat": 34.26488,
    "gLng": 108.944265,
    "overseasCity": false,
    "parentCityId": 0,
    "provinceId": 27,
    "scenery": false,
    "tuanGouFlag": 1
  },
  {
    "activeCity": true,
    "appHotLevel": 0,
    "cityAbbrCode": "XX",
    "cityAreaCode": "0916",
    "cityEnName": "xixiang",
    "cityId": 2054,
    "cityLevel": 100,
    "cityName": "西乡县",
    "cityOrderId": 5616,
    "cityPyName": "xixiang",
    "directURL": "",
    "gLat": 32.98306,
    "gLng": 107.76669,
    "overseasCity": false,
    "parentCityId": 295,
    "provinceId": 27,
    "scenery": false,
    "tuanGouFlag": 1
  },
  {
    "activeCity": true,
    "appHotLevel": 1,
    "cityAbbrCode": "XY",
    "cityAreaCode": "029",
    "cityEnName": "xianyang",
    "cityId": 292,
    "cityLevel": 100,
    "cityName": "咸阳",
    "cityOrderId": 5692,
    "cityPyName": "xianyang",
    "directURL": "",
    "gLat": 34.329434,
    "gLng": 108.709193,
    "overseasCity": false,
    "parentCityId": 0,
    "provinceId": 27,
    "scenery": false,
    "tuanGouFlag": 1
  },
  {
    "activeCity": true,
    "appHotLevel": 1,
    "cityAbbrCode": "XP",
    "cityAreaCode": "029",
    "cityEnName": "xingping",
    "cityId": 2031,
    "cityLevel": 100,
    "cityName": "兴平市",
    "cityOrderId": 5892,
    "cityPyName": "xingping",
    "directURL": "",
    "gLat": 34.29932,
    "gLng": 108.4904,
    "overseasCity": false,
    "parentCityId": 292,
    "provinceId": 27,
    "scenery": false,
    "tuanGouFlag": 1
  },
  {
    "activeCity": true,
    "appHotLevel": 0,
    "cityAbbrCode": "XY",
    "cityAreaCode": "0915",
    "cityEnName": "xunyang",
    "cityId": 2079,
    "cityLevel": 100,
    "cityName": "旬阳县",
    "cityOrderId": 5968,
    "cityPyName": "xunyang",
    "directURL": "",
    "gLat": 32.83417,
    "gLng": 109.3652,
    "overseasCity": false,
    "parentCityId": 297,
    "provinceId": 27,
    "scenery": false,
    "tuanGouFlag": 1
  },
  {
    "activeCity": true,
    "appHotLevel": 0,
    "cityAbbrCode": "XY",
    "cityAreaCode": "029",
    "cityEnName": "xunyi",
    "cityId": 2039,
    "cityLevel": 100,
    "cityName": "旬邑县",
    "cityOrderId": 5970,
    "cityPyName": "xunyi",
    "directURL": "",
    "gLat": 35.11184,
    "gLng": 108.33371,
    "overseasCity": false,
    "parentCityId": 292,
    "provinceId": 27,
    "scenery": false,
    "tuanGouFlag": 1
  },
  {
    "activeCity": true,
    "appHotLevel": 1,
    "cityAbbrCode": "YA",
    "cityAreaCode": "0911",
    "cityEnName": "yanan",
    "cityId": 294,
    "cityLevel": 100,
    "cityName": "延安",
    "cityOrderId": 6030,
    "cityPyName": "yanan",
    "directURL": "",
    "gLat": 36.585423,
    "gLng": 109.489634,
    "overseasCity": false,
    "parentCityId": 0,
    "provinceId": 27,
    "scenery": false,
    "tuanGouFlag": 1
  },
  {
    "activeCity": true,
    "appHotLevel": 0,
    "cityAbbrCode": "YC",
    "cityAreaCode": "0911",
    "cityEnName": "yanchang",
    "cityId": 2008,
    "cityLevel": 100,
    "cityName": "延长县",
    "cityOrderId": 6034,
    "cityPyName": "yanchang",
    "directURL": "",
    "gLat": 36.5793,
    "gLng": 110.01242,
    "overseasCity": false,
    "parentCityId": 294,
    "provinceId": 27,
    "scenery": false,
    "tuanGouFlag": 1
  },
  {
    "activeCity": true,
    "appHotLevel": 0,
    "cityAbbrCode": "YC",
    "cityAreaCode": "0911",
    "cityEnName": "yanchuan",
    "cityId": 2009,
    "cityLevel": 100,
    "cityName": "延川县",
    "cityOrderId": 6036,
    "cityPyName": "yanchuan",
    "directURL": "",
    "gLat": 36.87817,
    "gLng": 110.19373,
    "overseasCity": false,
    "parentCityId": 294,
    "provinceId": 27,
    "scenery": false,
    "tuanGouFlag": 1
  },
  {
    "activeCity": true,
    "appHotLevel": 1,
    "cityAbbrCode": "YL",
    "cityAreaCode": "029",
    "cityEnName": "yanliang",
    "cityId": 4486,
    "cityLevel": 100,
    "cityName": "阎良区",
    "cityOrderId": 6066,
    "cityPyName": "yanliang",
    "gLat": 0.0,
    "gLng": 0.0,
    "overseasCity": false,
    "parentCityId": 17,
    "provinceId": 27,
    "scenery": false,
    "standardEnName": "yanliang",
    "tuanGouFlag": 1
  },
  {
    "activeCity": true,
    "appHotLevel": 1,
    "cityAbbrCode": "YL",
    "cityAreaCode": "029",
    "cityEnName": "yangling",
    "cityId": 4485,
    "cityLevel": 100,
    "cityName": "杨陵区",
    "cityOrderId": 6112,
    "cityPyName": "yangling",
    "gLat": 0.0,
    "gLng": 0.0,
    "overseasCity": false,
    "parentCityId": 292,
    "provinceId": 27,
    "scenery": false,
    "standardEnName": "yangling",
    "tuanGouFlag": 1
  },
  {
    "activeCity": true,
    "appHotLevel": 0,
    "cityAbbrCode": "YX",
    "cityAreaCode": "0916",
    "cityEnName": "yangxian",
    "cityId": 2053,
    "cityLevel": 100,
    "cityName": "洋县",
    "cityOrderId": 6114,
    "cityPyName": "yangxian",
    "directURL": "",
    "gLat": 33.22279,
    "gLng": 107.54564,
    "overseasCity": false,
    "parentCityId": 295,
    "provinceId": 27,
    "scenery": false,
    "tuanGouFlag": 1
  },
  {
    "activeCity": true,
    "appHotLevel": 0,
    "cityAbbrCode": "YC",
    "cityAreaCode": "0911",
    "cityEnName": "yichuanxian",
    "cityId": 2017,
    "cityLevel": 100,
    "cityName": "宜川县",
    "cityOrderId": 6192,
    "cityPyName": "yichuanxian",
    "directURL": "",
    "gLat": 36.05024,
    "gLng": 110.16891,
    "overseasCity": false,
    "parentCityId": 294,
    "provinceId": 27,
    "scenery": false,
    "tuanGouFlag": 1
  },
  {
    "activeCity": true,
    "appHotLevel": 0,
    "cityAbbrCode": "YJ",
    "cityAreaCode": "0919",
    "cityEnName": "yijun",
    "cityId": 2020,
    "cityLevel": 100,
    "cityName": "宜君县",
    "cityOrderId": 6202,
    "cityPyName": "yijun",
    "directURL": "",
    "gLat": 35.39854,
    "gLng": 109.11707,
    "overseasCity": false,
    "parentCityId": 290,
    "provinceId": 27,
    "scenery": false,
    "tuanGouFlag": 1
  },
  {
    "activeCity": true,
    "appHotLevel": 0,
    "cityAbbrCode": "YS",
    "cityAreaCode": "029",
    "cityEnName": "yongshou",
    "cityId": 2036,
    "cityLevel": 100,
    "cityName": "永寿县",
    "cityOrderId": 6338,
    "cityPyName": "yongshou",
    "directURL": "",
    "gLat": 34.69184,
    "gLng": 108.14215,
    "overseasCity": false,
    "parentCityId": 292,
    "provinceId": 27,
    "scenery": false,
    "tuanGouFlag": 1
  },
  {
    "activeCity": true,
    "appHotLevel": 1,
    "cityAbbrCode": "YL",
    "cityAreaCode": "0912",
    "cityEnName": "yulin",
    "cityId": 296,
    "cityLevel": 100,
    "cityName": "榆林",
    "cityOrderId": 6388,
    "cityPyName": "yulin",
    "directURL": "",
    "gLat": 38.285526,
    "gLng": 109.735209,
    "overseasCity": false,
    "parentCityId": 0,
    "provinceId": 27,
    "scenery": false,
    "tuanGouFlag": 1
  },
  {
    "activeCity": true,
    "appHotLevel": 0,
    "cityAbbrCode": "ZA",
    "cityAreaCode": "0914",
    "cityEnName": "zhenan",
    "cityId": 2085,
    "cityLevel": 100,
    "cityName": "镇安县",
    "cityOrderId": 6594,
    "cityPyName": "zhenan",
    "directURL": "",
    "gLat": 33.42337,
    "gLng": 109.15258,
    "overseasCity": false,
    "parentCityId": 298,
    "provinceId": 27,
    "scenery": false,
    "tuanGouFlag": 1
  },
  {
    "activeCity": true,
    "appHotLevel": 0,
    "cityAbbrCode": "ZB",
    "cityAreaCode": "0916",
    "cityEnName": "zhenba",
    "cityId": 2058,
    "cityLevel": 100,
    "cityName": "镇巴县",
    "cityOrderId": 6596,
    "cityPyName": "zhenba",
    "directURL": "",
    "gLat": 32.53666,
    "gLng": 107.89502,
    "overseasCity": false,
    "parentCityId": 295,
    "provinceId": 27,
    "scenery": false,
    "tuanGouFlag": 1
  },
  {
    "activeCity": true,
    "appHotLevel": 0,
    "cityAbbrCode": "ZP",
    "cityAreaCode": "0915",
    "cityEnName": "zhenpin",
    "cityId": 2078,
    "cityLevel": 100,
    "cityName": "镇坪县",
    "cityOrderId": 6610,
    "cityPyName": "zhenping",
    "directURL": "",
    "gLat": 31.88376,
    "gLng": 109.52677,
    "overseasCity": false,
    "parentCityId": 297,
    "provinceId": 27,
    "scenery": false,
    "tuanGouFlag": 1
  },
  {
    "activeCity": true,
    "appHotLevel": 0,
    "cityAbbrCode": "ZD",
    "cityAreaCode": "0911",
    "cityEnName": "zhidan",
    "cityId": 2012,
    "cityLevel": 100,
    "cityName": "志丹县",
    "cityOrderId": 6644,
    "cityPyName": "zhidan",
    "directURL": "",
    "gLat": 36.82235,
    "gLng": 108.76845,
    "overseasCity": false,
    "parentCityId": 294,
    "provinceId": 27,
    "scenery": false,
    "tuanGouFlag": 1
  },
  {
    "activeCity": true,
    "appHotLevel": 0,
    "cityAbbrCode": "ZZ",
    "cityAreaCode": "029",
    "cityEnName": "zhouzhi",
    "cityId": 2005,
    "cityLevel": 100,
    "cityName": "周至县",
    "cityOrderId": 6688,
    "cityPyName": "zhouzhi",
    "directURL": "",
    "gLat": 34.1634,
    "gLng": 108.22213,
    "overseasCity": false,
    "parentCityId": 17,
    "provinceId": 27,
    "scenery": false,
    "tuanGouFlag": 1
  },
  {
    "activeCity": true,
    "appHotLevel": 0,
    "cityAbbrCode": "ZC",
    "cityAreaCode": "0911",
    "cityEnName": "zichang",
    "cityId": 2010,
    "cityLevel": 100,
    "cityName": "子长县",
    "cityOrderId": 6740,
    "cityPyName": "zichang",
    "directURL": "",
    "gLat": 37.14258,
    "gLng": 109.67538,
    "overseasCity": false,
    "parentCityId": 294,
    "provinceId": 27,
    "scenery": false,
    "tuanGouFlag": 1
  },
  {
    "activeCity": true,
    "appHotLevel": 0,
    "cityAbbrCode": "ZZ",
    "cityAreaCode": "0912",
    "cityEnName": "zizhou",
    "cityId": 2071,
    "cityLevel": 100,
    "cityName": "子洲县",
    "cityOrderId": 6742,
    "cityPyName": "zizhou",
    "directURL": "",
    "gLat": 37.61075,
    "gLng": 110.03526,
    "overseasCity": false,
    "parentCityId": 296,
    "provinceId": 27,
    "scenery": false,
    "tuanGouFlag": 1
  },
  {
    "activeCity": true,
    "appHotLevel": 0,
    "cityAbbrCode": "ZY",
    "cityAreaCode": "0915",
    "cityEnName": "ziyangxian",
    "cityId": 2075,
    "cityLevel": 100,
    "cityName": "紫阳县",
    "cityOrderId": 6750,
    "cityPyName": "ziyangxian",
    "directURL": "",
    "gLat": 32.52025,
    "gLng": 108.53419,
    "overseasCity": false,
    "parentCityId": 297,
    "provinceId": 27,
    "scenery": false,
    "tuanGouFlag": 1
  },
  {
    "activeCity": true,
    "appHotLevel": 0,
    "cityAbbrCode": "ZS",
    "cityAreaCode": "0914",
    "cityEnName": "zuoshui",
    "cityId": 2086,
    "cityLevel": 100,
    "cityName": "柞水县",
    "cityOrderId": 6776,
    "cityPyName": "zuoshui",
    "directURL": "",
    "gLat": 33.68607,
    "gLng": 109.1142,
    "overseasCity": false,
    "parentCityId": 298,
    "provinceId": 27,
    "scenery": false,
    "tuanGouFlag": 1
  }
]