[
  {
    "activeCity": true,
    "appHotLevel": 1,
    "cityAbbrCode": "AJ",
    "cityAreaCode": "0572",
    "cityEnName": "anji",
    "cityId": 875,
    "cityLevel": 100,
    "cityName": "安吉县",
    "cityOrderId": 146,
    "cityPyName": "anji",
    "directURL": "",
    "gLat": 30.63833,
    "gLng": 119.68033,
    "overseasCity": false,
    "parentCityId": 103,
    "provinceId": 11,
    "scenery": false,
    "tuanGouFlag": 1
  },
  {
    "activeCity": true,
    "appHotLevel": 1,
    "cityAbbrCode": "CN",
    "cityAreaCode": "0577",
    "cityEnName": "cangnan",
    "cityId": 911,
    "cityLevel": 100,
    "cityName": "苍南",
    "cityOrderId": 600,
    "cityPyName": "cangnan",
    "directURL": "",
    "gLat": 27.51743,
    "gLng": 120.42631,
    "overseasCity": false,
    "parentCityId": 101,
    "provinceId": 11,
    "scenery": false,
    "tuanGouFlag": 1
  },
  {
    "activeCity": true,
    "appHotLevel": 1,
    "cityAbbrCode": "CX",
    "cityAreaCode": "0572",
    "cityEnName": "changxing",
    "cityId": 873,
    "cityLevel": 100,
    "cityName": "长兴县",
    "cityOrderId": 692,
    "cityPyName": "changxing",
    "directURL": "",
    "gLat": 31.02667,
    "gLng": 119.91113,
    "overseasCity": false,
    "parentCityId": 103,
    "provinceId": 11,
    "scenery": false,
    "tuanGouFlag": 1
  },
  {
    "activeCity": true,
    "appHotLevel": 0,
    "cityAbbrCode": "CS",
    "cityAreaCode": "0570",
    "cityEnName": "changshan",
    "cityId": 889,
    "cityLevel": 100,
    "cityName": "常山县",
    "cityOrderId": 710,
    "cityPyName": "changshan",
    "directURL": "",
    "gLat": 28.9013341,
    "gLng": 118.5113415,
    "overseasCity": false,
    "parentCityId": 106,
    "provinceId": 11,
    "scenery": false,
    "tuanGouFlag": 1
  },
  {
    "activeCity": true,
    "appHotLevel": 0,
    "cityAbbrCode": "CA",
    "cityAreaCode": "0571",
    "cityEnName": "chunan",
    "cityId": 872,
    "cityLevel": 100,
    "cityName": "淳安县",
    "cityOrderId": 812,
    "cityPyName": "chunan",
    "directURL": "",
    "gLat": 29.608665,
    "gLng": 119.0419602,
    "overseasCity": false,
    "parentCityId": 3,
    "provinceId": 11,
    "scenery": false,
    "tuanGouFlag": 1
  },
  {
    "activeCity": true,
    "appHotLevel": 1,
    "cityAbbrCode": "CX",
    "cityAreaCode": "0574",
    "cityEnName": "cixi",
    "cityId": 421,
    "cityLevel": 100,
    "cityName": "慈溪",
    "cityOrderId": 820,
    "cityPyName": "cixi",
    "directURL": "",
    "gLat": 30.16963,
    "gLng": 121.26646,
    "overseasCity": false,
    "parentCityId": 11,
    "provinceId": 11,
    "scenery": false,
    "tuanGouFlag": 1
  },
  {
    "activeCity": true,
    "appHotLevel": 0,
    "cityAbbrCode": "DS",
    "cityAreaCode": "0580",
    "cityEnName": "daishan",
    "cityId": 881,
    "cityLevel": 100,
    "cityName": "岱山县",
    "cityOrderId": 950,
    "cityPyName": "daishan",
    "directURL": "",
    "gLat": 30.24367,
    "gLng": 122.205,
    "overseasCity": false,
    "parentCityId": 107,
    "provinceId": 11,
    "scenery": false,
    "tuanGouFlag": 1
  },
  {
    "activeCity": true,
    "appHotLevel": 1,
    "cityAbbrCode": "DQ",
    "cityAreaCode": "0572",
    "cityEnName": "deqing",
    "cityId": 874,
    "cityLevel": 100,
    "cityName": "德清县",
    "cityOrderId": 1030,
    "cityPyName": "deqing",
    "directURL": "",
    "gLat": 30.5427,
    "gLng": 119.97728,
    "overseasCity": false,
    "parentCityId": 103,
    "provinceId": 11,
    "scenery": false,
    "tuanGouFlag": 1
  },
  {
    "activeCity": true,
    "appHotLevel": 1,
    "cityAbbrCode": "DY",
    "cityAreaCode": "0579",
    "cityEnName": "dongyang",
    "cityId": 894,
    "cityLevel": 100,
    "cityName": "东阳",
    "cityOrderId": 1144,
    "cityPyName": "dongyang",
    "directURL": "",
    "gLat": 29.2898,
    "gLng": 120.24158,
    "overseasCity": false,
    "parentCityId": 105,
    "provinceId": 11,
    "scenery": false,
    "tuanGouFlag": 1
  },
  {
    "activeCity": true,
    "appHotLevel": 0,
    "cityAbbrCode": "DT",
    "cityAreaCode": "0577",
    "cityEnName": "dongtou",
    "cityId": 910,
    "cityLevel": 100,
    "cityName": "洞头区",
    "cityOrderId": 1154,
    "cityPyName": "dongtou",
    "directURL": "",
    "gLat": 0.0,
    "gLng": 0.0,
    "overseasCity": false,
    "parentCityId": 101,
    "provinceId": 11,
    "scenery": false,
    "tuanGouFlag": 1
  },
  {
    "activeCity": true,
    "appHotLevel": 1,
    "cityAbbrCode": "FH",
    "cityAreaCode": "0574",
    "cityEnName": "fenghua",
    "cityId": 422,
    "cityLevel": 100,
    "cityName": "奉化",
    "cityOrderId": 1350,
    "cityPyName": "fenghua",
    "directURL": "",
    "gLat": 29.65503,
    "gLng": 121.40686,
    "overseasCity": false,
    "parentCityId": 11,
    "provinceId": 11,
    "scenery": false,
    "tuanGouFlag": 1
  },
  {
    "activeCity": true,
    "appHotLevel": 0,
    "cityAbbrCode": "FCJ",
    "cityAreaCode": "0571",
    "cityEnName": "fuchunjiang",
    "cityId": 3601,
    "cityLevel": 100,
    "cityName": "富春江",
    "cityOrderId": 1446,
    "cityPyName": "fuchunjiang",
    "directURL": "",
    "gLat": 29.70885,
    "gLng": 119.65004,
    "overseasCity": false,
    "parentCityId": 871,
    "provinceId": 11,
    "scenery": true,
    "tuanGouFlag": 1
  },
  {
    "activeCity": true,
    "appHotLevel": 1,
    "cityAbbrCode": "FYH",
    "cityAreaCode": "0571",
    "cityEnName": "fuyangfy",
    "cityId": 869,
    "cityLevel": 100,
    "cityName": "富阳区",
    "cityOrderId": 1468,
    "cityPyName": "fuyangfy",
    "directURL": "",
    "gLat": 30.04885,
    "gLng": 119.96043,
    "overseasCity": false,
    "parentCityId": 3,
    "provinceId": 11,
    "scenery": false,
    "tuanGouFlag": 1
  },
  {
    "activeCity": true,
    "appHotLevel": 1,
    "cityAbbrCode": "HN",
    "cityAreaCode": "0573",
    "cityEnName": "haining",
    "cityId": 877,
    "cityLevel": 100,
    "cityName": "海宁市",
    "cityOrderId": 1794,
    "cityPyName": "haining",
    "directURL": "",
    "gLat": 30.51154,
    "gLng": 120.68023,
    "overseasCity": false,
    "parentCityId": 102,
    "provinceId": 11,
    "scenery": false,
    "tuanGouFlag": 1
  },
  {
    "activeCity": true,
    "appHotLevel": 0,
    "cityAbbrCode": "HY",
    "cityAreaCode": "0573",
    "cityEnName": "haiyan",
    "cityId": 880,
    "cityLevel": 100,
    "cityName": "海盐县",
    "cityOrderId": 1802,
    "cityPyName": "haiyan",
    "directURL": "",
    "gLat": 30.5257519,
    "gLng": 120.9465224,
    "overseasCity": false,
    "parentCityId": 102,
    "provinceId": 11,
    "scenery": false,
    "tuanGouFlag": 1
  },
  {
    "activeCity": true,
    "appHotLevel": 1,
    "cityAbbrCode": "HZ",
    "cityAreaCode": "0571",
    "cityEnName": "hangzhou",
    "cityId": 3,
    "cityLevel": 2,
    "cityName": "杭州",
    "cityOrderId": 1842,
    "cityPyName": "hangzhou",
    "directURL": "",
    "gLat": 30.273497,
    "gLng": 120.155249,
    "overseasCity": false,
    "parentCityId": 0,
    "provinceId": 11,
    "scenery": false,
    "tuanGouFlag": 1
  },
  {
    "activeCity": true,
    "appHotLevel": 0,
    "cityAbbrCode": "HD",
    "cityAreaCode": "0579",
    "cityEnName": "hengdian",
    "cityId": 3606,
    "cityLevel": 100,
    "cityName": "横店",
    "cityOrderId": 1946,
    "cityPyName": "hengdian",
    "directURL": "",
    "gLat": 29.15592,
    "gLng": 120.2876,
    "overseasCity": false,
    "parentCityId": 894,
    "provinceId": 11,
    "scenery": true,
    "tuanGouFlag": 1
  },
  {
    "activeCity": true,
    "appHotLevel": 1,
    "cityAbbrCode": "HZ",
    "cityAreaCode": "0572",
    "cityEnName": "huzhou",
    "cityId": 103,
    "cityLevel": 100,
    "cityName": "湖州",
    "cityOrderId": 2004,
    "cityPyName": "huzhou",
    "directURL": "",
    "gLat": 30.89436,
    "gLng": 120.086818,
    "overseasCity": false,
    "parentCityId": 0,
    "provinceId": 11,
    "scenery": false,
    "tuanGouFlag": 1
  },
  {
    "activeCity": true,
    "appHotLevel": 1,
    "cityAbbrCode": "JS",
    "cityAreaCode": "0573",
    "cityEnName": "jiashan",
    "cityId": 879,
    "cityLevel": 100,
    "cityName": "嘉善县",
    "cityOrderId": 2300,
    "cityPyName": "jiashan",
    "directURL": "",
    "gLat": 30.83101,
    "gLng": 120.92594,
    "overseasCity": false,
    "parentCityId": 102,
    "provinceId": 11,
    "scenery": false,
    "tuanGouFlag": 1
  },
  {
    "activeCity": true,
    "appHotLevel": 1,
    "cityAbbrCode": "JX",
    "cityAreaCode": "0573",
    "cityEnName": "jiaxing",
    "cityId": 102,
    "cityLevel": 100,
    "cityName": "嘉兴",
    "cityOrderId": 2304,
    "cityPyName": "jiaxing",
    "directURL": "",
    "gLat": 30.753924,
    "gLng": 120.758543,
    "overseasCity": false,
    "parentCityId": 0,
    "provinceId": 11,
    "scenery": false,
    "tuanGouFlag": 1
  },
  {
    "activeCity": true,
    "appHotLevel": 0,
    "cityAbbrCode": "JD",
    "cityAreaCode": "0571",
    "cityEnName": "jiande",
    "cityId": 870,
    "cityLevel": 100,
    "cityName": "建德市",
    "cityOrderId": 2338,
    "cityPyName": "jiande",
    "directURL": "",
    "gLat": 29.4747138,
    "gLng": 119.2812666,
    "overseasCity": false,
    "parentCityId": 3,
    "provinceId": 11,
    "scenery": false,
    "tuanGouFlag": 1
  },
  {
    "activeCity": true,
    "appHotLevel": 1,
    "cityAbbrCode": "JS",
    "cityAreaCode": "0570",
    "cityEnName": "jianshan",
    "cityId": 888,
    "cityLevel": 100,
    "cityName": "江山市",
    "cityOrderId": 2386,
    "cityPyName": "jiangshan",
    "directURL": "",
    "gLat": 28.73724,
    "gLng": 118.62699,
    "overseasCity": false,
    "parentCityId": 106,
    "provinceId": 11,
    "scenery": false,
    "tuanGouFlag": 1
  },
  {
    "activeCity": true,
    "appHotLevel": 1,
    "cityAbbrCode": "JH",
    "cityAreaCode": "0579",
    "cityEnName": "jinhua",
    "cityId": 105,
    "cityLevel": 100,
    "cityName": "金华",
    "cityOrderId": 2440,
    "cityPyName": "jinhua",
    "directURL": "",
    "gLat": 29.079164,
    "gLng": 119.647422,
    "overseasCity": false,
    "parentCityId": 0,
    "provinceId": 11,
    "scenery": false,
    "tuanGouFlag": 1
  },
  {
    "activeCity": true,
    "appHotLevel": 0,
    "cityAbbrCode": "JY",
    "cityAreaCode": "0578",
    "cityEnName": "jinyun",
    "cityId": 913,
    "cityLevel": 100,
    "cityName": "缙云县",
    "cityOrderId": 2490,
    "cityPyName": "jinyun",
    "directURL": "",
    "gLat": 28.65928,
    "gLng": 120.09158,
    "overseasCity": false,
    "parentCityId": 109,
    "provinceId": 11,
    "scenery": false,
    "tuanGouFlag": 1
  },
  {
    "activeCity": true,
    "appHotLevel": 0,
    "cityAbbrCode": "JN",
    "cityAreaCode": "0578",
    "cityEnName": "jingning",
    "cityId": 919,
    "cityLevel": 100,
    "cityName": "景宁畲族自治县",
    "cityOrderId": 2528,
    "cityPyName": "jingning",
    "directURL": "",
    "gLat": 27.9732,
    "gLng": 119.63581,
    "overseasCity": false,
    "parentCityId": 109,
    "provinceId": 11,
    "scenery": false,
    "tuanGouFlag": 1
  },
  {
    "activeCity": true,
    "appHotLevel": 0,
    "cityAbbrCode": "KH",
    "cityAreaCode": "0570",
    "cityEnName": "kaihua",
    "cityId": 890,
    "cityLevel": 100,
    "cityName": "开化县",
    "cityOrderId": 2634,
    "cityPyName": "kaihua",
    "directURL": "",
    "gLat": 29.1366513,
    "gLng": 118.4160917,
    "overseasCity": false,
    "parentCityId": 106,
    "provinceId": 11,
    "scenery": false,
    "tuanGouFlag": 1
  },
  {
    "activeCity": true,
    "appHotLevel": 0,
    "cityAbbrCode": "KQ",
    "cityAreaCode": "0575",
    "cityEnName": "shaoxingxian",
    "cityId": 886,
    "cityLevel": 100,
    "cityName": "柯桥区",
    "cityOrderId": 2692,
    "cityPyName": "keqiao",
    "directURL": "",
    "gLat": 30.08189,
    "gLng": 120.49476,
    "overseasCity": false,
    "parentCityId": 104,
    "provinceId": 11,
    "scenery": false,
    "tuanGouFlag": 1
  },
  {
    "activeCity": true,
    "appHotLevel": 1,
    "cityAbbrCode": "LX",
    "cityAreaCode": "0579",
    "cityEnName": "lanxi",
    "cityId": 892,
    "cityLevel": 100,
    "cityName": "兰溪市",
    "cityOrderId": 2842,
    "cityPyName": "lanxi",
    "directURL": "",
    "gLat": 29.20838,
    "gLng": 119.46051,
    "overseasCity": false,
    "parentCityId": 105,
    "provinceId": 11,
    "scenery": false,
    "tuanGouFlag": 1
  },
  {
    "activeCity": true,
    "appHotLevel": 1,
    "cityAbbrCode": "LS",
    "cityAreaCode": "0578",
    "cityEnName": "lishui",
    "cityId": 109,
    "cityLevel": 100,
    "cityName": "丽水",
    "cityOrderId": 2968,
    "cityPyName": "lishui",
    "directURL": "",
    "gLat": 28.451695,
    "gLng": 119.916875,
    "overseasCity": false,
    "parentCityId": 0,
    "provinceId": 11,
    "scenery": false,
    "tuanGouFlag": 1
  },
  {
    "activeCity": true,
    "appHotLevel": 1,
    "cityAbbrCode": "LA",
    "cityAreaCode": "0571",
    "cityEnName": "linan",
    "cityId": 868,
    "cityLevel": 100,
    "cityName": "临安",
    "cityOrderId": 3066,
    "cityPyName": "linan",
    "directURL": "",
    "gLat": 30.23383,
    "gLng": 119.7248,
    "overseasCity": false,
    "parentCityId": 3,
    "provinceId": 11,
    "scenery": false,
    "tuanGouFlag": 1
  },
  {
    "activeCity": true,
    "appHotLevel": 1,
    "cityAbbrCode": "LH",
    "cityAreaCode": "0576",
    "cityEnName": "linhai",
    "cityId": 898,
    "cityLevel": 100,
    "cityName": "临海市",
    "cityOrderId": 3076,
    "cityPyName": "linhai",
    "directURL": "",
    "gLat": 28.85845,
    "gLng": 121.1449,
    "overseasCity": false,
    "parentCityId": 108,
    "provinceId": 11,
    "scenery": false,
    "tuanGouFlag": 1
  },
  {
    "activeCity": true,
    "appHotLevel": 0,
    "cityAbbrCode": "LQ",
    "cityAreaCode": "0578",
    "cityEnName": "liuquan",
    "cityId": 912,
    "cityLevel": 100,
    "cityName": "龙泉市",
    "cityOrderId": 3200,
    "cityPyName": "longquan",
    "directURL": "",
    "gLat": 28.07434,
    "gLng": 119.14168,
    "overseasCity": false,
    "parentCityId": 109,
    "provinceId": 11,
    "scenery": false,
    "tuanGouFlag": 1
  },
  {
    "activeCity": true,
    "appHotLevel": 0,
    "cityAbbrCode": "LY",
    "cityAreaCode": "0570",
    "cityEnName": "liuyou",
    "cityId": 891,
    "cityLevel": 100,
    "cityName": "龙游县",
    "cityOrderId": 3210,
    "cityPyName": "longyou",
    "directURL": "",
    "gLat": 29.0282863,
    "gLng": 119.172512,
    "overseasCity": false,
    "parentCityId": 106,
    "provinceId": 11,
    "scenery": false,
    "tuanGouFlag": 1
  },
  {
    "activeCity": true,
    "appHotLevel": 0,
    "cityAbbrCode": "MGS",
    "cityAreaCode": "0572",
    "cityEnName": "moganshan",
    "cityId": 3605,
    "cityLevel": 100,
    "cityName": "莫干山",
    "cityOrderId": 3662,
    "cityPyName": "moganshan",
    "directURL": "",
    "gLat": 30.59936,
    "gLng": 119.90129,
    "overseasCity": false,
    "parentCityId": 874,
    "provinceId": 11,
    "scenery": true,
    "tuanGouFlag": 1
  },
  {
    "activeCity": true,
    "appHotLevel": 1,
    "cityAbbrCode": "NB",
    "cityAreaCode": "0574",
    "cityEnName": "ningbo",
    "cityId": 11,
    "cityLevel": 2,
    "cityName": "宁波",
    "cityOrderId": 3862,
    "cityPyName": "ningbo",
    "directURL": "",
    "gLat": 29.868336,
    "gLng": 121.54399,
    "overseasCity": false,
    "parentCityId": 0,
    "provinceId": 11,
    "scenery": false,
    "tuanGouFlag": 1
  },
  {
    "activeCity": true,
    "appHotLevel": 1,
    "cityAbbrCode": "NH",
    "cityAreaCode": "0574",
    "cityEnName": "ninghai",
    "cityId": 2308,
    "cityLevel": 100,
    "cityName": "宁海",
    "cityOrderId": 3874,
    "cityPyName": "ninghai",
    "directURL": "",
    "gLat": 29.28807,
    "gLng": 121.42961,
    "overseasCity": false,
    "parentCityId": 11,
    "provinceId": 11,
    "scenery": false,
    "tuanGouFlag": 1
  },
  {
    "activeCity": true,
    "appHotLevel": 0,
    "cityAbbrCode": "PA",
    "cityAreaCode": "0579",
    "cityEnName": "panan",
    "cityId": 897,
    "cityLevel": 100,
    "cityName": "磐安县",
    "cityOrderId": 3950,
    "cityPyName": "panan",
    "directURL": "",
    "gLat": 29.05403,
    "gLng": 120.45022,
    "overseasCity": false,
    "parentCityId": 105,
    "provinceId": 11,
    "scenery": false,
    "tuanGouFlag": 1
  },
  {
    "activeCity": true,
    "appHotLevel": 1,
    "cityAbbrCode": "PH",
    "cityAreaCode": "0573",
    "cityEnName": "pinghu",
    "cityId": 876,
    "cityLevel": 100,
    "cityName": "平湖市",
    "cityOrderId": 4012,
    "cityPyName": "pinghu",
    "directURL": "",
    "gLat": 30.67707,
    "gLng": 121.01542,
    "overseasCity": false,
    "parentCityId": 102,
    "provinceId": 11,
    "scenery": false,
    "tuanGouFlag": 1
  },
  {
    "activeCity": true,
    "appHotLevel": 1,
    "cityAbbrCode": "PY",
    "cityAreaCode": "0577",
    "cityEnName": "pingyang",
    "cityId": 908,
    "cityLevel": 100,
    "cityName": "平阳",
    "cityOrderId": 4044,
    "cityPyName": "pingyang",
    "directURL": "",
    "gLat": 27.66184,
    "gLng": 120.56588,
    "overseasCity": false,
    "parentCityId": 101,
    "provinceId": 11,
    "scenery": false,
    "tuanGouFlag": 1
  },
  {
    "activeCity": true,
    "appHotLevel": 0,
    "cityAbbrCode": "PJ",
    "cityAreaCode": "0579",
    "cityEnName": "pujiang",
    "cityId": 896,
    "cityLevel": 100,
    "cityName": "浦江县",
    "cityOrderId": 4094,
    "cityPyName": "pujiang",
    "directURL": "",
    "gLat": 29.45252,
    "gLng": 119.89215,
    "overseasCity": false,
    "parentCityId": 105,
    "provinceId": 11,
    "scenery": false,
    "tuanGouFlag": 1
  },
  {
    "activeCity": true,
    "appHotLevel": 0,
    "cityAbbrCode": "PTS",
    "cityAreaCode": "0580",
    "cityEnName": "putuoshan",
    "cityId": 3608,
    "cityLevel": 100,
    "cityName": "普陀山",
    "cityOrderId": 4120,
    "cityPyName": "putuoshan",
    "directURL": "",
    "gLat": 29.98311,
    "gLng": 122.38374,
    "overseasCity": false,
    "parentCityId": 107,
    "provinceId": 11,
    "scenery": true,
    "tuanGouFlag": 1
  },
  {
    "activeCity": true,
    "appHotLevel": 0,
    "cityAbbrCode": "QDH",
    "cityAreaCode": "0571",
    "cityEnName": "qiandaohu",
    "cityId": 3602,
    "cityLevel": 100,
    "cityName": "千岛湖",
    "cityOrderId": 4164,
    "cityPyName": "qiandaohu",
    "directURL": "",
    "gLat": 29.60687,
    "gLng": 119.07813,
    "overseasCity": false,
    "parentCityId": 872,
    "provinceId": 11,
    "scenery": true,
    "tuanGouFlag": 1
  },
  {
    "activeCity": true,
    "appHotLevel": 0,
    "cityAbbrCode": "QT",
    "cityAreaCode": "0578",
    "cityEnName": "qingtian",
    "cityId": 914,
    "cityLevel": 100,
    "cityName": "青田县",
    "cityOrderId": 4238,
    "cityPyName": "qingtian",
    "directURL": "",
    "gLat": 28.13987,
    "gLng": 120.28955,
    "overseasCity": false,
    "parentCityId": 109,
    "provinceId": 11,
    "scenery": false,
    "tuanGouFlag": 1
  },
  {
    "activeCity": true,
    "appHotLevel": 0,
    "cityAbbrCode": "QY",
    "cityAreaCode": "0578",
    "cityEnName": "lsqingyuan",
    "cityId": 918,
    "cityLevel": 100,
    "cityName": "庆元县",
    "cityOrderId": 4288,
    "cityPyName": "qingyuan",
    "directURL": "",
    "gLat": 27.61913,
    "gLng": 119.06266,
    "overseasCity": false,
    "parentCityId": 109,
    "provinceId": 11,
    "scenery": false,
    "tuanGouFlag": 1
  },
  {
    "activeCity": true,
    "appHotLevel": 1,
    "cityAbbrCode": "QZ",
    "cityAreaCode": "0570",
    "cityEnName": "quzhou",
    "cityId": 106,
    "cityLevel": 100,
    "cityName": "衢州",
    "cityOrderId": 4324,
    "cityPyName": "quzhou",
    "directURL": "",
    "gLat": 28.935883,
    "gLng": 118.874018,
    "overseasCity": false,
    "parentCityId": 0,
    "provinceId": 11,
    "scenery": false,
    "tuanGouFlag": 1
  },
  {
    "activeCity": true,
    "appHotLevel": 1,
    "cityAbbrCode": "RA",
    "cityAreaCode": "0577",
    "cityEnName": "ruian",
    "cityId": 904,
    "cityLevel": 100,
    "cityName": "瑞安",
    "cityOrderId": 4410,
    "cityPyName": "ruian",
    "directURL": "",
    "gLat": 27.77844,
    "gLng": 120.65511,
    "overseasCity": false,
    "parentCityId": 101,
    "provinceId": 11,
    "scenery": false,
    "tuanGouFlag": 1
  },
  {
    "activeCity": true,
    "appHotLevel": 0,
    "cityAbbrCode": "SM",
    "cityAreaCode": "0576",
    "cityEnName": "sanmen",
    "cityId": 900,
    "cityLevel": 100,
    "cityName": "三门县",
    "cityOrderId": 4476,
    "cityPyName": "sanmen",
    "directURL": "",
    "gLat": 29.10467,
    "gLng": 121.39568,
    "overseasCity": false,
    "parentCityId": 108,
    "provinceId": 11,
    "scenery": false,
    "tuanGouFlag": 1
  },
  {
    "activeCity": true,
    "appHotLevel": 1,
    "cityAbbrCode": "SY",
    "cityAreaCode": "0575",
    "cityEnName": "shangyu",
    "cityId": 884,
    "cityLevel": 100,
    "cityName": "上虞区",
    "cityOrderId": 4590,
    "cityPyName": "shangyu",
    "directURL": "",
    "gLat": 30.03218,
    "gLng": 120.86846,
    "overseasCity": false,
    "parentCityId": 104,
    "provinceId": 11,
    "scenery": false,
    "tuanGouFlag": 1
  },
  {
    "activeCity": true,
    "appHotLevel": 1,
    "cityAbbrCode": "SX",
    "cityAreaCode": "0575",
    "cityEnName": "shaoxing",
    "cityId": 104,
    "cityLevel": 100,
    "cityName": "绍兴",
    "cityOrderId": 4610,
    "cityPyName": "shaoxing",
    "directURL": "",
    "gLat": 29.995762,
    "gLng": 120.586109,
    "overseasCity": false,
    "parentCityId": 0,
    "provinceId": 11,
    "scenery": false,
    "tuanGouFlag": 1
  },
  {
    "activeCity": true,
    "appHotLevel": 0,
    "cityAbbrCode": "SS",
    "cityAreaCode": "0580",
    "cityEnName": "shengsi",
    "cityId": 882,
    "cityLevel": 100,
    "cityName": "嵊泗县",
    "cityOrderId": 4686,
    "cityPyName": "shengsi",
    "directURL": "",
    "gLat": 30.72573,
    "gLng": 122.45137,
    "overseasCity": false,
    "parentCityId": 107,
    "provinceId": 11,
    "scenery": false,
    "tuanGouFlag": 1
  },
  {
    "activeCity": true,
    "appHotLevel": 1,
    "cityAbbrCode": "SZ",
    "cityAreaCode": "0575",
    "cityEnName": "shengzhou",
    "cityId": 885,
    "cityLevel": 100,
    "cityName": "嵊州市",
    "cityOrderId": 4688,
    "cityPyName": "shengzhou",
    "directURL": "",
    "gLat": 29.56114,
    "gLng": 120.83075,
    "overseasCity": false,
    "parentCityId": 104,
    "provinceId": 11,
    "scenery": false,
    "tuanGouFlag": 1
  },
  {
    "activeCity": true,
    "appHotLevel": 0,
    "cityAbbrCode": "SY",
    "cityAreaCode": "0578",
    "cityEnName": "songyang",
    "cityId": 917,
    "cityLevel": 100,
    "cityName": "松阳县",
    "cityOrderId": 4864,
    "cityPyName": "songyang",
    "directURL": "",
    "gLat": 28.44867,
    "gLng": 119.48153,
    "overseasCity": false,
    "parentCityId": 109,
    "provinceId": 11,
    "scenery": false,
    "tuanGouFlag": 1
  },
  {
    "activeCity": true,
    "appHotLevel": 0,
    "cityAbbrCode": "SC",
    "cityAreaCode": "0578",
    "cityEnName": "suicang",
    "cityId": 916,
    "cityLevel": 100,
    "cityName": "遂昌县",
    "cityOrderId": 4934,
    "cityPyName": "suichang",
    "directURL": "",
    "gLat": 28.59215,
    "gLng": 119.27618,
    "overseasCity": false,
    "parentCityId": 109,
    "provinceId": 11,
    "scenery": false,
    "tuanGouFlag": 1
  },
  {
    "activeCity": true,
    "appHotLevel": 1,
    "cityAbbrCode": "TZ",
    "cityAreaCode": "0576",
    "cityEnName": "zhejiangtaizhou",
    "cityId": 108,
    "cityLevel": 100,
    "cityName": "台州",
    "cityOrderId": 4990,
    "cityPyName": "taizhou",
    "directURL": "",
    "gLat": 28.828501,
    "gLng": 121.175834,
    "overseasCity": false,
    "parentCityId": 0,
    "provinceId": 11,
    "scenery": false,
    "tuanGouFlag": 1
  },
  {
    "activeCity": true,
    "appHotLevel": 0,
    "cityAbbrCode": "TS",
    "cityAreaCode": "0577",
    "cityEnName": "taishun",
    "cityId": 909,
    "cityLevel": 100,
    "cityName": "泰顺县",
    "cityOrderId": 5024,
    "cityPyName": "taishun",
    "directURL": "",
    "gLat": 0.0,
    "gLng": 0.0,
    "overseasCity": false,
    "parentCityId": 101,
    "provinceId": 11,
    "scenery": false,
    "tuanGouFlag": 1
  },
  {
    "activeCity": true,
    "appHotLevel": 0,
    "cityAbbrCode": "TMS",
    "cityAreaCode": "0571",
    "cityEnName": "tianmushan",
    "cityId": 3603,
    "cityLevel": 100,
    "cityName": "天目山",
    "cityOrderId": 5098,
    "cityPyName": "tianmushan",
    "directURL": "",
    "gLat": 30.19866,
    "gLng": 119.497445,
    "overseasCity": false,
    "parentCityId": 868,
    "provinceId": 11,
    "scenery": true,
    "tuanGouFlag": 1
  },
  {
    "activeCity": true,
    "appHotLevel": 0,
    "cityAbbrCode": "TT",
    "cityAreaCode": "0576",
    "cityEnName": "tiantai",
    "cityId": 901,
    "cityLevel": 100,
    "cityName": "天台县",
    "cityOrderId": 5106,
    "cityPyName": "tiantai",
    "directURL": "",
    "gLat": 29.14456,
    "gLng": 121.00667,
    "overseasCity": false,
    "parentCityId": 108,
    "provinceId": 11,
    "scenery": false,
    "tuanGouFlag": 1
  },
  {
    "activeCity": true,
    "appHotLevel": 0,
    "cityAbbrCode": "TL",
    "cityAreaCode": "0571",
    "cityEnName": "tonglu",
    "cityId": 871,
    "cityLevel": 100,
    "cityName": "桐庐县",
    "cityOrderId": 5170,
    "cityPyName": "tonglu",
    "directURL": "",
    "gLat": 29.7925471,
    "gLng": 119.6923199,
    "overseasCity": false,
    "parentCityId": 3,
    "provinceId": 11,
    "scenery": false,
    "tuanGouFlag": 1
  },
  {
    "activeCity": true,
    "appHotLevel": 1,
    "cityAbbrCode": "TX",
    "cityAreaCode": "0573",
    "cityEnName": "tongxiang",
    "cityId": 878,
    "cityLevel": 100,
    "cityName": "桐乡市",
    "cityOrderId": 5172,
    "cityPyName": "tongxiang",
    "directURL": "",
    "gLat": 30.63025,
    "gLng": 120.56495,
    "overseasCity": false,
    "parentCityId": 102,
    "provinceId": 11,
    "scenery": false,
    "tuanGouFlag": 1
  },
  {
    "activeCity": true,
    "appHotLevel": 1,
    "cityAbbrCode": "WL",
    "cityAreaCode": "0576",
    "cityEnName": "wenling",
    "cityId": 899,
    "cityLevel": 100,
    "cityName": "温岭市",
    "cityOrderId": 5350,
    "cityPyName": "wenling",
    "directURL": "",
    "gLat": 28.3718,
    "gLng": 121.38599,
    "overseasCity": false,
    "parentCityId": 108,
    "provinceId": 11,
    "scenery": false,
    "tuanGouFlag": 1
  },
  {
    "activeCity": true,
    "appHotLevel": 1,
    "cityAbbrCode": "WZ",
    "cityAreaCode": "0577",
    "cityEnName": "wenzhou",
    "cityId": 101,
    "cityLevel": 100,
    "cityName": "温州",
    "cityOrderId": 5362,
    "cityPyName": "wenzhou",
    "directURL": "",
    "gLat": 27.994243,
    "gLng": 120.699355,
    "overseasCity": false,
    "parentCityId": 0,
    "provinceId": 11,
    "scenery": false,
    "tuanGouFlag": 1
  },
  {
    "activeCity": true,
    "appHotLevel": 0,
    "cityAbbrCode": "WC",
    "cityAreaCode": "0577",
    "cityEnName": "wencheng",
    "cityId": 907,
    "cityLevel": 100,
    "cityName": "文成县",
    "cityOrderId": 5368,
    "cityPyName": "wencheng",
    "directURL": "",
    "gLat": 0.0,
    "gLng": 0.0,
    "overseasCity": false,
    "parentCityId": 101,
    "provinceId": 11,
    "scenery": false,
    "tuanGouFlag": 1
  },
  {
    "activeCity": true,
    "appHotLevel": 1,
    "cityAbbrCode": "WZ",
    "cityAreaCode": "0573",
    "cityEnName": "wuzhen",
    "cityId": 3513,
    "cityLevel": 100,
    "cityName": "乌镇",
    "cityOrderId": 5446,
    "cityPyName": "wuzhen",
    "directURL": "",
    "gLat": 30.7426,
    "gLng": 120.48776,
    "overseasCity": false,
    "parentCityId": 878,
    "provinceId": 11,
    "scenery": true,
    "tuanGouFlag": 1
  },
  {
    "activeCity": true,
    "appHotLevel": 0,
    "cityAbbrCode": "WY",
    "cityAreaCode": "0579",
    "cityEnName": "wuyixian",
    "cityId": 895,
    "cityLevel": 100,
    "cityName": "武义县",
    "cityOrderId": 5546,
    "cityPyName": "wuyixian",
    "directURL": "",
    "gLat": 28.89261,
    "gLng": 119.81647,
    "overseasCity": false,
    "parentCityId": 105,
    "provinceId": 11,
    "scenery": false,
    "tuanGouFlag": 1
  },
  {
    "activeCity": true,
    "appHotLevel": 1,
    "cityAbbrCode": "XT",
    "cityAreaCode": "0573",
    "cityEnName": "xitang",
    "cityId": 3512,
    "cityLevel": 100,
    "cityName": "西塘",
    "cityOrderId": 5608,
    "cityPyName": "xitang",
    "directURL": "",
    "gLat": 30.93879,
    "gLng": 120.89132,
    "overseasCity": false,
    "parentCityId": 879,
    "provinceId": 11,
    "scenery": true,
    "tuanGouFlag": 1
  },
  {
    "activeCity": true,
    "appHotLevel": 0,
    "cityAbbrCode": "XD",
    "cityAreaCode": "0578",
    "cityEnName": "xiandu",
    "cityId": 3614,
    "cityLevel": 100,
    "cityName": "仙都",
    "cityOrderId": 5676,
    "cityPyName": "xiandu",
    "directURL": "",
    "gLat": 28.697437,
    "gLng": 120.127893,
    "overseasCity": false,
    "parentCityId": 913,
    "provinceId": 11,
    "scenery": true,
    "tuanGouFlag": 1
  },
  {
    "activeCity": true,
    "appHotLevel": 0,
    "cityAbbrCode": "XJ",
    "cityAreaCode": "0576",
    "cityEnName": "xianju",
    "cityId": 902,
    "cityLevel": 100,
    "cityName": "仙居县",
    "cityOrderId": 5678,
    "cityPyName": "xianju",
    "directURL": "",
    "gLat": 28.84683,
    "gLng": 120.72881,
    "overseasCity": false,
    "parentCityId": 108,
    "provinceId": 11,
    "scenery": false,
    "tuanGouFlag": 1
  },
  {
    "activeCity": true,
    "appHotLevel": 1,
    "cityAbbrCode": "XS",
    "cityAreaCode": "0574",
    "cityEnName": "xiangshan",
    "cityId": 2309,
    "cityLevel": 100,
    "cityName": "象山",
    "cityOrderId": 5742,
    "cityPyName": "xiangshan",
    "directURL": "",
    "gLat": 29.47665,
    "gLng": 121.86932,
    "overseasCity": false,
    "parentCityId": 11,
    "provinceId": 11,
    "scenery": false,
    "tuanGouFlag": 1
  },
  {
    "activeCity": true,
    "appHotLevel": 0,
    "cityAbbrCode": "XC",
    "cityAreaCode": "0575",
    "cityEnName": "xincang",
    "cityId": 887,
    "cityLevel": 100,
    "cityName": "新昌县",
    "cityOrderId": 5788,
    "cityPyName": "xinchang",
    "directURL": "",
    "gLat": 29.499705,
    "gLng": 120.9040215,
    "overseasCity": false,
    "parentCityId": 104,
    "provinceId": 11,
    "scenery": false,
    "tuanGouFlag": 1
  },
  {
    "activeCity": true,
    "appHotLevel": 1,
    "cityAbbrCode": "YQ",
    "cityAreaCode": "0577",
    "cityEnName": "yueqing",
    "cityId": 905,
    "cityLevel": 100,
    "cityName": "乐清",
    "cityOrderId": 5980,
    "cityPyName": "yueqing",
    "directURL": "",
    "gLat": 28.11295,
    "gLng": 120.98537,
    "overseasCity": false,
    "parentCityId": 101,
    "provinceId": 11,
    "scenery": false,
    "tuanGouFlag": 1
  },
  {
    "activeCity": true,
    "appHotLevel": 0,
    "cityAbbrCode": "YDS",
    "cityAreaCode": "0577",
    "cityEnName": "yandangshan",
    "cityId": 3604,
    "cityLevel": 100,
    "cityName": "雁荡山",
    "cityOrderId": 6074,
    "cityPyName": "yandangshan",
    "directURL": "",
    "gLat": 28.35771,
    "gLng": 121.14392,
    "overseasCity": false,
    "parentCityId": 905,
    "provinceId": 11,
    "scenery": true,
    "tuanGouFlag": 1
  },
  {
    "activeCity": true,
    "appHotLevel": 1,
    "cityAbbrCode": "YW",
    "cityAreaCode": "0579",
    "cityEnName": "yiwu",
    "cityId": 385,
    "cityLevel": 100,
    "cityName": "义乌",
    "cityOrderId": 6226,
    "cityPyName": "yiwu",
    "directURL": "",
    "gLat": 29.306841,
    "gLng": 120.075058,
    "overseasCity": false,
    "parentCityId": 105,
    "provinceId": 11,
    "scenery": false,
    "tuanGouFlag": 1
  },
  {
    "activeCity": true,
    "appHotLevel": 0,
    "cityAbbrCode": "YJ",
    "cityAreaCode": "0577",
    "cityEnName": "yongjia",
    "cityId": 906,
    "cityLevel": 100,
    "cityName": "永嘉县",
    "cityOrderId": 6318,
    "cityPyName": "yongjia",
    "directURL": "",
    "gLat": 0.0,
    "gLng": 0.0,
    "overseasCity": false,
    "parentCityId": 101,
    "provinceId": 11,
    "scenery": false,
    "tuanGouFlag": 1
  },
  {
    "activeCity": true,
    "appHotLevel": 1,
    "cityAbbrCode": "YK",
    "cityAreaCode": "0579",
    "cityEnName": "yongkang",
    "cityId": 893,
    "cityLevel": 100,
    "cityName": "永康",
    "cityOrderId": 6322,
    "cityPyName": "yongkang",
    "directURL": "",
    "gLat": 28.88851,
    "gLng": 120.04731,
    "overseasCity": false,
    "parentCityId": 105,
    "provinceId": 11,
    "scenery": false,
    "tuanGouFlag": 1
  },
  {
    "activeCity": true,
    "appHotLevel": 1,
    "cityAbbrCode": "YY",
    "cityAreaCode": "0574",
    "cityEnName": "yuyao",
    "cityId": 423,
    "cityLevel": 100,
    "cityName": "余姚",
    "cityOrderId": 6380,
    "cityPyName": "yuyao",
    "directURL": "",
    "gLat": 30.03711,
    "gLng": 121.15434,
    "overseasCity": false,
    "parentCityId": 11,
    "provinceId": 11,
    "scenery": false,
    "tuanGouFlag": 1
  },
  {
    "activeCity": true,
    "appHotLevel": 1,
    "cityAbbrCode": "YH",
    "cityAreaCode": "0576",
    "cityEnName": "yuhuan",
    "cityId": 903,
    "cityLevel": 100,
    "cityName": "玉环市",
    "cityOrderId": 6404,
    "cityPyName": "yuhuan",
    "directURL": "",
    "gLat": 28.13589,
    "gLng": 121.23164,
    "overseasCity": false,
    "parentCityId": 108,
    "provinceId": 11,
    "scenery": false,
    "tuanGouFlag": 1
  },
  {
    "activeCity": true,
    "appHotLevel": 0,
    "cityAbbrCode": "YH",
    "cityAreaCode": "0578",
    "cityEnName": "yunhe",
    "cityId": 915,
    "cityLevel": 100,
    "cityName": "云和县",
    "cityOrderId": 6474,
    "cityPyName": "yunhe",
    "directURL": "",
    "gLat": 28.11591,
    "gLng": 119.5734,
    "overseasCity": false,
    "parentCityId": 109,
    "provinceId": 11,
    "scenery": false,
    "tuanGouFlag": 1
  },
  {
    "activeCity": true,
    "appHotLevel": 1,
    "cityAbbrCode": "ZH",
    "cityAreaCode": "0574",
    "cityEnName": "zhenhai",
    "cityId": 4475,
    "cityLevel": 100,
    "cityName": "镇海区",
    "cityOrderId": 6598,
    "cityPyName": "zhenhai",
    "gLat": 0.0,
    "gLng": 0.0,
    "overseasCity": false,
    "parentCityId": 11,
    "provinceId": 11,
    "scenery": false,
    "standardEnName": "zhenhai",
    "tuanGouFlag": 1
  },
  {
    "activeCity": true,
    "appHotLevel": 1,
    "cityAbbrCode": "ZS",
    "cityAreaCode": "0580",
    "cityEnName": "zhoushan",
    "cityId": 107,
    "cityLevel": 100,
    "cityName": "舟山",
    "cityOrderId": 6680,
    "cityPyName": "zhoushan",
    "directURL": "",
    "gLat": 29.985444,
    "gLng": 122.206596,
    "overseasCity": false,
    "parentCityId": 0,
    "provinceId": 11,
    "scenery": false,
    "tuanGouFlag": 1
  },
  {
    "activeCity": true,
    "appHotLevel": 0,
    "cityAbbrCode": "ZJJ",
    "cityAreaCode": "0580",
    "cityEnName": "zhujiajian",
    "cityId": 3607,
    "cityLevel": 100,
    "cityName": "朱家尖",
    "cityOrderId": 6692,
    "cityPyName": "zhujiajian",
    "directURL": "",
    "gLat": 29.91669,
    "gLng": 122.3929,
    "overseasCity": false,
    "parentCityId": 107,
    "provinceId": 11,
    "scenery": true,
    "tuanGouFlag": 1
  },
  {
    "activeCity": true,
    "appHotLevel": 1,
    "cityAbbrCode": "ZJ",
    "cityAreaCode": "0575",
    "cityEnName": "zhuji",
    "cityId": 883,
    "cityLevel": 100,
    "cityName": "诸暨",
    "cityOrderId": 6702,
    "cityPyName": "zhuji",
    "directURL": "",
    "gLat": 29.71364,
    "gLng": 120.23632,
    "overseasCity": false,
    "parentCityId": 104,
    "provinceId": 11,
    "scenery": false,
    "tuanGouFlag": 1
  }
]